[
    {
        "station_complex_id": "214",
        "transit_day": "2024-01-02",
        "transit_hour": "21:00",
        "station_complex": "182-183 Sts (B,D)",
        "total_ridership": 8.0,
        "latitude": 40.856094,
        "longitude": -73.90074,
        "borough": "Bronx"
    },
    {
        "station_complex_id": "602",
        "transit_day": "2024-01-02",
        "transit_hour": "05:00",
        "station_complex": "14 St-Union Sq (L,N,Q,R,W,4,5,6)",
        "total_ridership": 33.0,
        "latitude": 40.735737,
        "longitude": -73.98995,
        "borough": "Manhattan"
    },
    {
        "station_complex_id": "607",
        "transit_day": "2024-02-26",
        "transit_hour": "00:00",
        "station_complex": "34 St-Herald Sq (B,D,F,M,N,Q,R,W)",
        "total_ridership": 56.0,
        "latitude": 40.749718,
        "longitude": -73.98782,
        "borough": "Manhattan"
    },
    {
        "station_complex_id": "626",
        "transit_day": "2024-02-26",
        "transit_hour": "18:00",
        "station_complex": "Franklin Av (2,3,4,5)/Botanic Garden (S)",
        "total_ridership": 36.0,
        "latitude": 40.67068,
        "longitude": -73.95813,
        "borough": "Brooklyn"
    },
    {
        "station_complex_id": "608",
        "transit_day": "2024-01-02",
        "transit_hour": "02:00",
        "station_complex": "4 Av (F,G)/9 St (R)",
        "total_ridership": 7.0,
        "latitude": 40.67085,
        "longitude": -73.988304,
        "borough": "Brooklyn"
    },
    {
        "station_complex_id": "628",
        "transit_day": "2024-02-26",
        "transit_hour": "09:00",
        "station_complex": "Fulton St (A,C,J,Z,2,3,4,5)",
        "total_ridership": 177.0,
        "latitude": 40.710373,
        "longitude": -74.00657,
        "borough": "Manhattan"
    },
    {
        "station_complex_id": "152",
        "transit_day": "2024-01-02",
        "transit_hour": "14:00",
        "station_complex": "135 St (C,B)",
        "total_ridership": 25.0,
        "latitude": 40.817894,
        "longitude": -73.94765,
        "borough": "Manhattan"
    },
    {
        "station_complex_id": "222",
        "transit_day": "2024-01-02",
        "transit_hour": "17:00",
        "station_complex": "Roosevelt Island (F)",
        "total_ridership": 21.0,
        "latitude": 40.759144,
        "longitude": -73.95326,
        "borough": "Manhattan"
    },
    {
        "station_complex_id": "606",
        "transit_day": "2024-01-02",
        "transit_hour": "13:00",
        "station_complex": "Court Sq (E,G,M,7)",
        "total_ridership": 124.0,
        "latitude": 40.747845,
        "longitude": -73.94383,
        "borough": "Queens"
    },
    {
        "station_complex_id": "627",
        "transit_day": "2024-01-02",
        "transit_hour": "02:00",
        "station_complex": "Franklin Av (C,S)",
        "total_ridership": 1.0,
        "latitude": 40.68138,
        "longitude": -73.95685,
        "borough": "Brooklyn"
    },
    {
        "station_complex_id": "629",
        "transit_day": "2024-01-02",
        "transit_hour": "02:00",
        "station_complex": "Lorimer St (L)/Metropolitan Av (G)",
        "total_ridership": 9.0,
        "latitude": 40.71406,
        "longitude": -73.95027,
        "borough": "Brooklyn"
    },
    {
        "station_complex_id": "74",
        "transit_day": "2024-02-26",
        "transit_hour": "16:00",
        "station_complex": "18 Av (N)",
        "total_ridership": 107.0,
        "latitude": 40.62067,
        "longitude": -73.99042,
        "borough": "Brooklyn"
    },
    {
        "station_complex_id": "61",
        "transit_day": "2024-01-02",
        "transit_hour": "18:00",
        "station_complex": "50 St (D)",
        "total_ridership": 56.0,
        "latitude": 40.63626,
        "longitude": -73.99479,
        "borough": "Brooklyn"
    },
    {
        "station_complex_id": "52",
        "transit_day": "2024-01-02",
        "transit_hour": "04:00",
        "station_complex": "Avenue U (Q)",
        "total_ridership": 9.0,
        "latitude": 40.5993,
        "longitude": -73.95593,
        "borough": "Brooklyn"
    },
    {
        "station_complex_id": "214",
        "transit_day": "2024-01-02",
        "transit_hour": "12:00",
        "station_complex": "182-183 Sts (B,D)",
        "total_ridership": 7.0,
        "latitude": 40.856094,
        "longitude": -73.90074,
        "borough": "Bronx"
    },
    {
        "station_complex_id": "187",
        "transit_day": "2024-01-02",
        "transit_hour": "09:00",
        "station_complex": "Shepherd Av (C)",
        "total_ridership": 15.0,
        "latitude": 40.67413,
        "longitude": -73.88075,
        "borough": "Brooklyn"
    },
    {
        "station_complex_id": "188",
        "transit_day": "2024-01-02",
        "transit_hour": "00:00",
        "station_complex": "Euclid Av (A,C)",
        "total_ridership": 8.0,
        "latitude": 40.675377,
        "longitude": -73.87211,
        "borough": "Brooklyn"
    },
    {
        "station_complex_id": "628",
        "transit_day": "2024-02-26",
        "transit_hour": "03:00",
        "station_complex": "Fulton St (A,C,J,Z,2,3,4,5)",
        "total_ridership": 10.0,
        "latitude": 40.710197,
        "longitude": -74.00657,
        "borough": "Manhattan"
    },
    {
        "station_complex_id": "215",
        "transit_day": "2024-01-02",
        "transit_hour": "22:00",
        "station_complex": "Tremont Av (B,D)",
        "total_ridership": 1.0,
        "latitude": 40.85041,
        "longitude": -73.90523,
        "borough": "Bronx"
    },
    {
        "station_complex_id": "636",
        "transit_day": "2024-02-26",
        "transit_hour": "21:00",
        "station_complex": "Jay St-MetroTech (A,C,F,R)",
        "total_ridership": 64.0,
        "latitude": 40.692337,
        "longitude": -73.98594,
        "borough": "Brooklyn"
    },
    {
        "station_complex_id": "6",
        "transit_day": "2024-01-02",
        "transit_hour": "14:00",
        "station_complex": "39 Av-Dutch Kills (N,W)",
        "total_ridership": 21.0,
        "latitude": 40.75288,
        "longitude": -73.932755,
        "borough": "Queens"
    },
    {
        "station_complex_id": "186",
        "transit_day": "2024-01-02",
        "transit_hour": "07:00",
        "station_complex": "Van Siclen Av (C)",
        "total_ridership": 41.0,
        "latitude": 40.67271,
        "longitude": -73.89036,
        "borough": "Brooklyn"
    },
    {
        "station_complex_id": "212",
        "transit_day": "2024-01-02",
        "transit_hour": "09:00",
        "station_complex": "Kingsbridge Rd (B,D)",
        "total_ridership": 28.0,
        "latitude": 40.866978,
        "longitude": -73.89351,
        "borough": "Bronx"
    },
    {
        "station_complex_id": "613",
        "transit_day": "2024-01-02",
        "transit_hour": "01:00",
        "station_complex": "Lexington Av (N,R,W)/59 St (4,5,6)",
        "total_ridership": 13.0,
        "latitude": 40.76266,
        "longitude": -73.967255,
        "borough": "Manhattan"
    },
    {
        "station_complex_id": "65",
        "transit_day": "2024-02-26",
        "transit_hour": "02:00",
        "station_complex": "79 St (D)",
        "total_ridership": 1.0,
        "latitude": 40.613503,
        "longitude": -74.00061,
        "borough": "Brooklyn"
    },
    {
        "station_complex_id": "154",
        "transit_day": "2024-01-02",
        "transit_hour": "10:00",
        "station_complex": "116 St (C,B)",
        "total_ridership": 6.0,
        "latitude": 40.805084,
        "longitude": -73.95488,
        "borough": "Manhattan"
    },
    {
        "station_complex_id": "151",
        "transit_day": "2024-01-02",
        "transit_hour": "10:00",
        "station_complex": "145 St (A,C,B,D)",
        "total_ridership": 16.0,
        "latitude": 40.824783,
        "longitude": -73.944214,
        "borough": "Manhattan"
    },
    {
        "station_complex_id": "75",
        "transit_day": "2024-02-26",
        "transit_hour": "19:00",
        "station_complex": "20 Av (N)",
        "total_ridership": 13.0,
        "latitude": 40.61741,
        "longitude": -73.98502,
        "borough": "Brooklyn"
    },
    {
        "station_complex_id": "601",
        "transit_day": "2024-01-02",
        "transit_hour": "17:00",
        "station_complex": "14 St (F,M,1,2,3)/6 Av (L)",
        "total_ridership": 102.0,
        "latitude": 40.738228,
        "longitude": -73.99621,
        "borough": "Manhattan"
    },
    {
        "station_complex_id": "636",
        "transit_day": "2024-02-26",
        "transit_hour": "07:00",
        "station_complex": "Jay St-MetroTech (A,C,F,R)",
        "total_ridership": 174.0,
        "latitude": 40.692337,
        "longitude": -73.98594,
        "borough": "Brooklyn"
    },
    {
        "station_complex_id": "611",
        "transit_day": "2024-01-02",
        "transit_hour": "23:00",
        "station_complex": "Times Sq-42 St (N,Q,R,W,S,1,2,3,7)/42 St (A,C,E)",
        "total_ridership": 77.0,
        "latitude": 40.75731,
        "longitude": -73.986755,
        "borough": "Manhattan"
    },
    {
        "station_complex_id": "609",
        "transit_day": "2024-02-26",
        "transit_hour": "09:00",
        "station_complex": "Bryant Pk (B,D,F,M)/5 Av (7)",
        "total_ridership": 8.0,
        "latitude": 40.754223,
        "longitude": -73.984566,
        "borough": "Manhattan"
    },
    {
        "station_complex_id": "126",
        "transit_day": "2024-01-02",
        "transit_hour": "04:00",
        "station_complex": "Jefferson St (L)",
        "total_ridership": 2.0,
        "latitude": 40.706608,
        "longitude": -73.92291,
        "borough": "Brooklyn"
    },
    {
        "station_complex_id": "152",
        "transit_day": "2024-01-02",
        "transit_hour": "10:00",
        "station_complex": "135 St (C,B)",
        "total_ridership": 1.0,
        "latitude": 40.817894,
        "longitude": -73.94765,
        "borough": "Manhattan"
    },
    {
        "station_complex_id": "624",
        "transit_day": "2024-02-26",
        "transit_hour": "18:00",
        "station_complex": "Chambers St (A,C)/WTC (E)/Park Pl (2,3)/Cortlandt (R,W)",
        "total_ridership": 13.0,
        "latitude": 40.71411,
        "longitude": -74.00858,
        "borough": "Manhattan"
    },
    {
        "station_complex_id": "610",
        "transit_day": "2024-01-02",
        "transit_hour": "04:00",
        "station_complex": "Grand Central-42 St (S,4,5,6,7)",
        "total_ridership": 11.0,
        "latitude": 40.751778,
        "longitude": -73.976845,
        "borough": "Manhattan"
    },
    {
        "station_complex_id": "160",
        "transit_day": "2024-01-02",
        "transit_hour": "11:00",
        "station_complex": "72 St (C,B)",
        "total_ridership": 22.0,
        "latitude": 40.775593,
        "longitude": -73.97641,
        "borough": "Manhattan"
    },
    {
        "station_complex_id": "131",
        "transit_day": "2024-01-02",
        "transit_hour": "17:00",
        "station_complex": "Bushwick Av-Aberdeen St (L)",
        "total_ridership": 16.0,
        "latitude": 40.68283,
        "longitude": -73.90525,
        "borough": "Brooklyn"
    },
    {
        "station_complex_id": "611",
        "transit_day": "2024-02-26",
        "transit_hour": "20:00",
        "station_complex": "Times Sq-42 St (N,Q,R,W,S,1,2,3,7)/42 St (A,C,E)",
        "total_ridership": 436.0,
        "latitude": 40.75731,
        "longitude": -73.986755,
        "borough": "Manhattan"
    },
    {
        "station_complex_id": "59",
        "transit_day": "2024-01-02",
        "transit_hour": "00:00",
        "station_complex": "9 Av (D)",
        "total_ridership": 1.0,
        "latitude": 40.646294,
        "longitude": -73.99432,
        "borough": "Brooklyn"
    },
    {
        "station_complex_id": "608",
        "transit_day": "2024-01-02",
        "transit_hour": "10:00",
        "station_complex": "4 Av (F,G)/9 St (R)",
        "total_ridership": 28.0,
        "latitude": 40.67085,
        "longitude": -73.988304,
        "borough": "Brooklyn"
    },
    {
        "station_complex_id": "64",
        "transit_day": "2024-02-26",
        "transit_hour": "17:00",
        "station_complex": "71 St (D)",
        "total_ridership": 12.0,
        "latitude": 40.61959,
        "longitude": -73.99886,
        "borough": "Brooklyn"
    },
    {
        "station_complex_id": "160",
        "transit_day": "2024-01-02",
        "transit_hour": "07:00",
        "station_complex": "72 St (C,B)",
        "total_ridership": 22.0,
        "latitude": 40.775593,
        "longitude": -73.97641,
        "borough": "Manhattan"
    },
    {
        "station_complex_id": "222",
        "transit_day": "2024-01-02",
        "transit_hour": "08:00",
        "station_complex": "Roosevelt Island (F)",
        "total_ridership": 82.0,
        "latitude": 40.759144,
        "longitude": -73.95326,
        "borough": "Manhattan"
    },
    {
        "station_complex_id": "55",
        "transit_day": "2024-01-02",
        "transit_hour": "11:00",
        "station_complex": "Brighton Beach (B,Q)",
        "total_ridership": 178.0,
        "latitude": 40.57762,
        "longitude": -73.96137,
        "borough": "Brooklyn"
    },
    {
        "station_complex_id": "608",
        "transit_day": "2024-02-26",
        "transit_hour": "12:00",
        "station_complex": "4 Av (F,G)/9 St (R)",
        "total_ridership": 18.0,
        "latitude": 40.67085,
        "longitude": -73.988304,
        "borough": "Brooklyn"
    },
    {
        "station_complex_id": "66",
        "transit_day": "2024-02-26",
        "transit_hour": "17:00",
        "station_complex": "18 Av (D)",
        "total_ridership": 12.0,
        "latitude": 40.607952,
        "longitude": -74.00174,
        "borough": "Brooklyn"
    },
    {
        "station_complex_id": "628",
        "transit_day": "2024-02-26",
        "transit_hour": "21:00",
        "station_complex": "Fulton St (A,C,J,Z,2,3,4,5)",
        "total_ridership": 16.0,
        "latitude": 40.710373,
        "longitude": -74.00657,
        "borough": "Manhattan"
    },
    {
        "station_complex_id": "221",
        "transit_day": "2024-01-02",
        "transit_hour": "16:00",
        "station_complex": "21 St-Queensbridge (F)",
        "total_ridership": 31.0,
        "latitude": 40.754204,
        "longitude": -73.94283,
        "borough": "Queens"
    },
    {
        "station_complex_id": "150",
        "transit_day": "2024-01-02",
        "transit_hour": "16:00",
        "station_complex": "155 St (C)",
        "total_ridership": 4.0,
        "latitude": 40.830517,
        "longitude": -73.94151,
        "borough": "Manhattan"
    },
    {
        "station_complex_id": "53",
        "transit_day": "2024-01-02",
        "transit_hour": "07:00",
        "station_complex": "Neck Rd (Q)",
        "total_ridership": 191.0,
        "latitude": 40.595245,
        "longitude": -73.95516,
        "borough": "Brooklyn"
    },
    {
        "station_complex_id": "120",
        "transit_day": "2024-01-02",
        "transit_hour": "02:00",
        "station_complex": "Bedford Av (L)",
        "total_ridership": 3.0,
        "latitude": 40.717304,
        "longitude": -73.95687,
        "borough": "Brooklyn"
    },
    {
        "station_complex_id": "629",
        "transit_day": "2024-01-02",
        "transit_hour": "21:00",
        "station_complex": "Lorimer St (L)/Metropolitan Av (G)",
        "total_ridership": 226.0,
        "latitude": 40.71406,
        "longitude": -73.95027,
        "borough": "Brooklyn"
    },
    {
        "station_complex_id": "76",
        "transit_day": "2024-02-26",
        "transit_hour": "17:00",
        "station_complex": "Bay Pkwy (N)",
        "total_ridership": 49.0,
        "latitude": 40.611816,
        "longitude": -73.98185,
        "borough": "Brooklyn"
    },
    {
        "station_complex_id": "131",
        "transit_day": "2024-01-02",
        "transit_hour": "22:00",
        "station_complex": "Bushwick Av-Aberdeen St (L)",
        "total_ridership": 4.0,
        "latitude": 40.68283,
        "longitude": -73.90525,
        "borough": "Brooklyn"
    },
    {
        "station_complex_id": "13",
        "transit_day": "2024-01-02",
        "transit_hour": "19:00",
        "station_complex": "28 St (R,W)",
        "total_ridership": 286.0,
        "latitude": 40.745495,
        "longitude": -73.98869,
        "borough": "Manhattan"
    },
    {
        "station_complex_id": "65",
        "transit_day": "2024-02-26",
        "transit_hour": "13:00",
        "station_complex": "79 St (D)",
        "total_ridership": 12.0,
        "latitude": 40.613503,
        "longitude": -74.00061,
        "borough": "Brooklyn"
    },
    {
        "station_complex_id": "625",
        "transit_day": "2024-02-26",
        "transit_hour": "16:00",
        "station_complex": "Delancey St (F)/Essex St (J,M,Z)",
        "total_ridership": 254.0,
        "latitude": 40.718613,
        "longitude": -73.987434,
        "borough": "Manhattan"
    },
    {
        "station_complex_id": "76",
        "transit_day": "2024-02-26",
        "transit_hour": "04:00",
        "station_complex": "Bay Pkwy (N)",
        "total_ridership": 7.0,
        "latitude": 40.611816,
        "longitude": -73.98185,
        "borough": "Brooklyn"
    },
    {
        "station_complex_id": "54",
        "transit_day": "2024-01-02",
        "transit_hour": "00:00",
        "station_complex": "Sheepshead Bay (B,Q)",
        "total_ridership": 3.0,
        "latitude": 40.586895,
        "longitude": -73.954155,
        "borough": "Brooklyn"
    },
    {
        "station_complex_id": "209",
        "transit_day": "2024-01-02",
        "transit_hour": "20:00",
        "station_complex": "Far Rockaway-Mott Av (A)",
        "total_ridership": 21.0,
        "latitude": 40.603996,
        "longitude": -73.7554,
        "borough": "Queens"
    },
    {
        "station_complex_id": "126",
        "transit_day": "2024-01-02",
        "transit_hour": "00:00",
        "station_complex": "Jefferson St (L)",
        "total_ridership": 3.0,
        "latitude": 40.706608,
        "longitude": -73.92291,
        "borough": "Brooklyn"
    },
    {
        "station_complex_id": "131",
        "transit_day": "2024-01-02",
        "transit_hour": "12:00",
        "station_complex": "Bushwick Av-Aberdeen St (L)",
        "total_ridership": 38.0,
        "latitude": 40.68283,
        "longitude": -73.90525,
        "borough": "Brooklyn"
    },
    {
        "station_complex_id": "221",
        "transit_day": "2024-01-02",
        "transit_hour": "05:00",
        "station_complex": "21 St-Queensbridge (F)",
        "total_ridership": 9.0,
        "latitude": 40.754204,
        "longitude": -73.94283,
        "borough": "Queens"
    },
    {
        "station_complex_id": "181",
        "transit_day": "2024-01-02",
        "transit_hour": "21:00",
        "station_complex": "Utica Av (A,C)",
        "total_ridership": 3.0,
        "latitude": 40.679363,
        "longitude": -73.93073,
        "borough": "Brooklyn"
    },
    {
        "station_complex_id": "623",
        "transit_day": "2024-02-26",
        "transit_hour": "08:00",
        "station_complex": "Canal St (J,N,Q,R,W,Z,6)",
        "total_ridership": 72.0,
        "latitude": 40.71953,
        "longitude": -73.99989,
        "borough": "Manhattan"
    },
    {
        "station_complex_id": "611",
        "transit_day": "2024-02-26",
        "transit_hour": "18:00",
        "station_complex": "Times Sq-42 St (N,Q,R,W,S,1,2,3,7)/42 St (A,C,E)",
        "total_ridership": 1324.0,
        "latitude": 40.75731,
        "longitude": -73.986755,
        "borough": "Manhattan"
    },
    {
        "station_complex_id": "211",
        "transit_day": "2024-01-02",
        "transit_hour": "23:00",
        "station_complex": "Bedford Park Blvd (B,D)",
        "total_ridership": 3.0,
        "latitude": 40.873245,
        "longitude": -73.88714,
        "borough": "Bronx"
    },
    {
        "station_complex_id": "608",
        "transit_day": "2024-02-26",
        "transit_hour": "10:00",
        "station_complex": "4 Av (F,G)/9 St (R)",
        "total_ridership": 24.0,
        "latitude": 40.67085,
        "longitude": -73.988304,
        "borough": "Brooklyn"
    },
    {
        "station_complex_id": "601",
        "transit_day": "2024-01-02",
        "transit_hour": "07:00",
        "station_complex": "14 St (F,M,1,2,3)/6 Av (L)",
        "total_ridership": 49.0,
        "latitude": 40.738228,
        "longitude": -73.99621,
        "borough": "Manhattan"
    },
    {
        "station_complex_id": "64",
        "transit_day": "2024-02-26",
        "transit_hour": "13:00",
        "station_complex": "71 St (D)",
        "total_ridership": 35.0,
        "latitude": 40.61959,
        "longitude": -73.99886,
        "borough": "Brooklyn"
    },
    {
        "station_complex_id": "133",
        "transit_day": "2024-01-02",
        "transit_hour": "16:00",
        "station_complex": "Atlantic Av (L)",
        "total_ridership": 10.0,
        "latitude": 40.675346,
        "longitude": -73.9031,
        "borough": "Brooklyn"
    },
    {
        "station_complex_id": "636",
        "transit_day": "2024-02-26",
        "transit_hour": "11:00",
        "station_complex": "Jay St-MetroTech (A,C,F,R)",
        "total_ridership": 7.0,
        "latitude": 40.692337,
        "longitude": -73.98594,
        "borough": "Brooklyn"
    },
    {
        "station_complex_id": "609",
        "transit_day": "2024-01-02",
        "transit_hour": "03:00",
        "station_complex": "Bryant Pk (B,D,F,M)/5 Av (7)",
        "total_ridership": 4.0,
        "latitude": 40.754223,
        "longitude": -73.981964,
        "borough": "Manhattan"
    },
    {
        "station_complex_id": "627",
        "transit_day": "2024-02-26",
        "transit_hour": "19:00",
        "station_complex": "Franklin Av (C,S)",
        "total_ridership": 26.0,
        "latitude": 40.68138,
        "longitude": -73.95685,
        "borough": "Brooklyn"
    },
    {
        "station_complex_id": "611",
        "transit_day": "2024-01-02",
        "transit_hour": "22:00",
        "station_complex": "Times Sq-42 St (N,Q,R,W,S,1,2,3,7)/42 St (A,C,E)",
        "total_ridership": 1070.0,
        "latitude": 40.75731,
        "longitude": -73.986755,
        "borough": "Manhattan"
    },
    {
        "station_complex_id": "153",
        "transit_day": "2024-01-02",
        "transit_hour": "16:00",
        "station_complex": "125 St (A,C,B,D)",
        "total_ridership": 143.0,
        "latitude": 40.811108,
        "longitude": -73.95235,
        "borough": "Manhattan"
    },
    {
        "station_complex_id": "628",
        "transit_day": "2024-01-02",
        "transit_hour": "02:00",
        "station_complex": "Fulton St (A,C,J,Z,2,3,4,5)",
        "total_ridership": 17.0,
        "latitude": 40.71037,
        "longitude": -74.00657,
        "borough": "Manhattan"
    },
    {
        "station_complex_id": "71",
        "transit_day": "2024-02-26",
        "transit_hour": "08:00",
        "station_complex": "8 Av (N)",
        "total_ridership": 190.0,
        "latitude": 40.635063,
        "longitude": -74.01172,
        "borough": "Brooklyn"
    },
    {
        "station_complex_id": "624",
        "transit_day": "2024-02-26",
        "transit_hour": "09:00",
        "station_complex": "Chambers St (A,C)/WTC (E)/Park Pl (2,3)/Cortlandt (R,W)",
        "total_ridership": 343.0,
        "latitude": 40.71411,
        "longitude": -74.00858,
        "borough": "Manhattan"
    },
    {
        "station_complex_id": "58",
        "transit_day": "2024-01-02",
        "transit_hour": "21:00",
        "station_complex": "Coney Island-Stillwell Av (D,F,N,Q)",
        "total_ridership": 3.0,
        "latitude": 40.577423,
        "longitude": -73.98123,
        "borough": "Brooklyn"
    },
    {
        "station_complex_id": "61",
        "transit_day": "2024-01-02",
        "transit_hour": "00:00",
        "station_complex": "50 St (D)",
        "total_ridership": 3.0,
        "latitude": 40.63626,
        "longitude": -73.99479,
        "borough": "Brooklyn"
    },
    {
        "station_complex_id": "150",
        "transit_day": "2024-01-02",
        "transit_hour": "03:00",
        "station_complex": "155 St (C)",
        "total_ridership": 1.0,
        "latitude": 40.830517,
        "longitude": -73.94151,
        "borough": "Manhattan"
    },
    {
        "station_complex_id": "155",
        "transit_day": "2024-01-02",
        "transit_hour": "04:00",
        "station_complex": "Cathedral Pkwy (110 St) (C,B)",
        "total_ridership": 1.0,
        "latitude": 40.800602,
        "longitude": -73.95816,
        "borough": "Manhattan"
    },
    {
        "station_complex_id": "610",
        "transit_day": "2024-02-26",
        "transit_hour": "09:00",
        "station_complex": "Grand Central-42 St (S,4,5,6,7)",
        "total_ridership": 3352.0,
        "latitude": 40.751778,
        "longitude": -73.976845,
        "borough": "Manhattan"
    },
    {
        "station_complex_id": "610",
        "transit_day": "2024-01-02",
        "transit_hour": "01:00",
        "station_complex": "Grand Central-42 St (S,4,5,6,7)",
        "total_ridership": 2.0,
        "latitude": 40.751778,
        "longitude": -73.976845,
        "borough": "Manhattan"
    },
    {
        "station_complex_id": "162",
        "transit_day": "2024-01-02",
        "transit_hour": "11:00",
        "station_complex": "50 St (C,E)",
        "total_ridership": 13.0,
        "latitude": 40.762455,
        "longitude": -73.985985,
        "borough": "Manhattan"
    },
    {
        "station_complex_id": "625",
        "transit_day": "2024-01-02",
        "transit_hour": "21:00",
        "station_complex": "Delancey St (F)/Essex St (J,M,Z)",
        "total_ridership": 3.0,
        "latitude": 40.718613,
        "longitude": -73.98811,
        "borough": "Manhattan"
    },
    {
        "station_complex_id": "70",
        "transit_day": "2024-02-26",
        "transit_hour": "16:00",
        "station_complex": "Bay 50 St (D)",
        "total_ridership": 58.0,
        "latitude": 40.58884,
        "longitude": -73.983765,
        "borough": "Brooklyn"
    },
    {
        "station_complex_id": "210",
        "transit_day": "2024-01-02",
        "transit_hour": "16:00",
        "station_complex": "Norwood-205 St (D)",
        "total_ridership": 72.0,
        "latitude": 40.87481,
        "longitude": -73.87885,
        "borough": "Bronx"
    },
    {
        "station_complex_id": "123",
        "transit_day": "2024-01-02",
        "transit_hour": "22:00",
        "station_complex": "Grand St (L)",
        "total_ridership": 40.0,
        "latitude": 40.711926,
        "longitude": -73.94067,
        "borough": "Brooklyn"
    },
    {
        "station_complex_id": "607",
        "transit_day": "2024-01-02",
        "transit_hour": "01:00",
        "station_complex": "34 St-Herald Sq (B,D,F,M,N,Q,R,W)",
        "total_ridership": 80.0,
        "latitude": 40.749718,
        "longitude": -73.98782,
        "borough": "Manhattan"
    },
    {
        "station_complex_id": "610",
        "transit_day": "2024-02-26",
        "transit_hour": "07:00",
        "station_complex": "Grand Central-42 St (S,4,5,6,7)",
        "total_ridership": 442.0,
        "latitude": 40.751778,
        "longitude": -73.976845,
        "borough": "Manhattan"
    },
    {
        "station_complex_id": "22",
        "transit_day": "2024-01-02",
        "transit_hour": "17:00",
        "station_complex": "Rector St (R,W)",
        "total_ridership": 139.0,
        "latitude": 40.70722,
        "longitude": -74.01334,
        "borough": "Manhattan"
    },
    {
        "station_complex_id": "6",
        "transit_day": "2024-01-02",
        "transit_hour": "12:00",
        "station_complex": "39 Av-Dutch Kills (N,W)",
        "total_ridership": 4.0,
        "latitude": 40.75288,
        "longitude": -73.932755,
        "borough": "Queens"
    },
    {
        "station_complex_id": "57",
        "transit_day": "2024-01-02",
        "transit_hour": "22:00",
        "station_complex": "W 8 St-NY Aquarium (F,Q)",
        "total_ridership": 3.0,
        "latitude": 40.576126,
        "longitude": -73.97594,
        "borough": "Brooklyn"
    },
    {
        "station_complex_id": "221",
        "transit_day": "2024-01-02",
        "transit_hour": "10:00",
        "station_complex": "21 St-Queensbridge (F)",
        "total_ridership": 59.0,
        "latitude": 40.754204,
        "longitude": -73.94283,
        "borough": "Queens"
    },
    {
        "station_complex_id": "607",
        "transit_day": "2024-02-26",
        "transit_hour": "20:00",
        "station_complex": "34 St-Herald Sq (B,D,F,M,N,Q,R,W)",
        "total_ridership": 1871.0,
        "latitude": 40.749718,
        "longitude": -73.98782,
        "borough": "Manhattan"
    },
    {
        "station_complex_id": "58",
        "transit_day": "2024-01-02",
        "transit_hour": "19:00",
        "station_complex": "Coney Island-Stillwell Av (D,F,N,Q)",
        "total_ridership": 63.0,
        "latitude": 40.577423,
        "longitude": -73.98123,
        "borough": "Brooklyn"
    },
    {
        "station_complex_id": "120",
        "transit_day": "2024-01-02",
        "transit_hour": "11:00",
        "station_complex": "Bedford Av (L)",
        "total_ridership": 93.0,
        "latitude": 40.717304,
        "longitude": -73.95687,
        "borough": "Brooklyn"
    },
    {
        "station_complex_id": "156",
        "transit_day": "2024-01-02",
        "transit_hour": "14:00",
        "station_complex": "103 St (C,B)",
        "total_ridership": 12.0,
        "latitude": 40.796093,
        "longitude": -73.96146,
        "borough": "Manhattan"
    },
    {
        "station_complex_id": "193",
        "transit_day": "2024-01-02",
        "transit_hour": "08:00",
        "station_complex": "104 St (A)",
        "total_ridership": 58.0,
        "latitude": 40.68171,
        "longitude": -73.837685,
        "borough": "Queens"
    },
    {
        "station_complex_id": "611",
        "transit_day": "2024-01-02",
        "transit_hour": "15:00",
        "station_complex": "Times Sq-42 St (N,Q,R,W,S,1,2,3,7)/42 St (A,C,E)",
        "total_ridership": 1242.0,
        "latitude": 40.75731,
        "longitude": -73.986755,
        "borough": "Manhattan"
    },
    {
        "station_complex_id": "628",
        "transit_day": "2024-01-02",
        "transit_hour": "12:00",
        "station_complex": "Fulton St (A,C,J,Z,2,3,4,5)",
        "total_ridership": 260.0,
        "latitude": 40.710373,
        "longitude": -74.00657,
        "borough": "Manhattan"
    },
    {
        "station_complex_id": "627",
        "transit_day": "2024-01-02",
        "transit_hour": "06:00",
        "station_complex": "Franklin Av (C,S)",
        "total_ridership": 30.0,
        "latitude": 40.68138,
        "longitude": -73.95685,
        "borough": "Brooklyn"
    },
    {
        "station_complex_id": "13",
        "transit_day": "2024-01-02",
        "transit_hour": "22:00",
        "station_complex": "28 St (R,W)",
        "total_ridership": 4.0,
        "latitude": 40.745495,
        "longitude": -73.98869,
        "borough": "Manhattan"
    },
    {
        "station_complex_id": "626",
        "transit_day": "2024-02-26",
        "transit_hour": "16:00",
        "station_complex": "Franklin Av (2,3,4,5)/Botanic Garden (S)",
        "total_ridership": 369.0,
        "latitude": 40.67068,
        "longitude": -73.95813,
        "borough": "Brooklyn"
    },
    {
        "station_complex_id": "212",
        "transit_day": "2024-01-02",
        "transit_hour": "03:00",
        "station_complex": "Kingsbridge Rd (B,D)",
        "total_ridership": 2.0,
        "latitude": 40.866978,
        "longitude": -73.89351,
        "borough": "Bronx"
    },
    {
        "station_complex_id": "151",
        "transit_day": "2024-01-02",
        "transit_hour": "07:00",
        "station_complex": "145 St (A,C,B,D)",
        "total_ridership": 142.0,
        "latitude": 40.824783,
        "longitude": -73.944214,
        "borough": "Manhattan"
    },
    {
        "station_complex_id": "636",
        "transit_day": "2024-02-26",
        "transit_hour": "00:00",
        "station_complex": "Jay St-MetroTech (A,C,F,R)",
        "total_ridership": 13.0,
        "latitude": 40.692337,
        "longitude": -73.98594,
        "borough": "Brooklyn"
    },
    {
        "station_complex_id": "16",
        "transit_day": "2024-01-02",
        "transit_hour": "00:00",
        "station_complex": "8 St-NYU (R,W)",
        "total_ridership": 1.0,
        "latitude": 40.730328,
        "longitude": -73.99263,
        "borough": "Manhattan"
    },
    {
        "station_complex_id": "54",
        "transit_day": "2024-01-02",
        "transit_hour": "01:00",
        "station_complex": "Sheepshead Bay (B,Q)",
        "total_ridership": 1.0,
        "latitude": 40.586895,
        "longitude": -73.954155,
        "borough": "Brooklyn"
    },
    {
        "station_complex_id": "622",
        "transit_day": "2024-01-02",
        "transit_hour": "15:00",
        "station_complex": "Brooklyn Bridge-City Hall (4,5,6)/Chambers St (J,Z)",
        "total_ridership": 1254.0,
        "latitude": 40.71324,
        "longitude": -74.0034,
        "borough": "Manhattan"
    },
    {
        "station_complex_id": "182",
        "transit_day": "2024-01-02",
        "transit_hour": "09:00",
        "station_complex": "Ralph Av (C)",
        "total_ridership": 11.0,
        "latitude": 40.67882,
        "longitude": -73.920784,
        "borough": "Brooklyn"
    },
    {
        "station_complex_id": "59",
        "transit_day": "2024-01-02",
        "transit_hour": "09:00",
        "station_complex": "9 Av (D)",
        "total_ridership": 36.0,
        "latitude": 40.646294,
        "longitude": -73.99432,
        "borough": "Brooklyn"
    },
    {
        "station_complex_id": "628",
        "transit_day": "2024-01-02",
        "transit_hour": "15:00",
        "station_complex": "Fulton St (A,C,J,Z,2,3,4,5)",
        "total_ridership": 751.0,
        "latitude": 40.710373,
        "longitude": -74.00657,
        "borough": "Manhattan"
    },
    {
        "station_complex_id": "189",
        "transit_day": "2024-01-02",
        "transit_hour": "18:00",
        "station_complex": "Grant Av (A)",
        "total_ridership": 9.0,
        "latitude": 40.677044,
        "longitude": -73.86505,
        "borough": "Brooklyn"
    },
    {
        "station_complex_id": "68",
        "transit_day": "2024-02-26",
        "transit_hour": "12:00",
        "station_complex": "Bay Pkwy (D)",
        "total_ridership": 45.0,
        "latitude": 40.601875,
        "longitude": -73.99373,
        "borough": "Brooklyn"
    },
    {
        "station_complex_id": "162",
        "transit_day": "2024-01-02",
        "transit_hour": "01:00",
        "station_complex": "50 St (C,E)",
        "total_ridership": 4.0,
        "latitude": 40.762455,
        "longitude": -73.985985,
        "borough": "Manhattan"
    },
    {
        "station_complex_id": "56",
        "transit_day": "2024-01-02",
        "transit_hour": "07:00",
        "station_complex": "Ocean Pkwy (Q)",
        "total_ridership": 7.0,
        "latitude": 40.576313,
        "longitude": -73.9685,
        "borough": "Brooklyn"
    },
    {
        "station_complex_id": "601",
        "transit_day": "2024-01-02",
        "transit_hour": "10:00",
        "station_complex": "14 St (F,M,1,2,3)/6 Av (L)",
        "total_ridership": 37.0,
        "latitude": 40.738228,
        "longitude": -73.99621,
        "borough": "Manhattan"
    },
    {
        "station_complex_id": "124",
        "transit_day": "2024-01-02",
        "transit_hour": "10:00",
        "station_complex": "Montrose Av (L)",
        "total_ridership": 3.0,
        "latitude": 40.70774,
        "longitude": -73.93985,
        "borough": "Brooklyn"
    },
    {
        "station_complex_id": "190",
        "transit_day": "2024-01-02",
        "transit_hour": "09:00",
        "station_complex": "80 St (A)",
        "total_ridership": 19.0,
        "latitude": 40.67937,
        "longitude": -73.85899,
        "borough": "Queens"
    },
    {
        "station_complex_id": "209",
        "transit_day": "2024-01-02",
        "transit_hour": "10:00",
        "station_complex": "Far Rockaway-Mott Av (A)",
        "total_ridership": 20.0,
        "latitude": 40.603996,
        "longitude": -73.7554,
        "borough": "Queens"
    },
    {
        "station_complex_id": "612",
        "transit_day": "2024-02-26",
        "transit_hour": "14:00",
        "station_complex": "Lexington Av-53 St (E,M)/51 St (6)",
        "total_ridership": 121.0,
        "latitude": 40.757553,
        "longitude": -73.969055,
        "borough": "Manhattan"
    },
    {
        "station_complex_id": "155",
        "transit_day": "2024-01-02",
        "transit_hour": "13:00",
        "station_complex": "Cathedral Pkwy (110 St) (C,B)",
        "total_ridership": 3.0,
        "latitude": 40.800602,
        "longitude": -73.95816,
        "borough": "Manhattan"
    },
    {
        "station_complex_id": "61",
        "transit_day": "2024-02-26",
        "transit_hour": "05:00",
        "station_complex": "50 St (D)",
        "total_ridership": 11.0,
        "latitude": 40.63626,
        "longitude": -73.99479,
        "borough": "Brooklyn"
    },
    {
        "station_complex_id": "52",
        "transit_day": "2024-01-02",
        "transit_hour": "05:00",
        "station_complex": "Avenue U (Q)",
        "total_ridership": 6.0,
        "latitude": 40.5993,
        "longitude": -73.95593,
        "borough": "Brooklyn"
    },
    {
        "station_complex_id": "606",
        "transit_day": "2024-01-02",
        "transit_hour": "08:00",
        "station_complex": "Court Sq (E,G,M,7)",
        "total_ridership": 40.0,
        "latitude": 40.747845,
        "longitude": -73.94383,
        "borough": "Queens"
    },
    {
        "station_complex_id": "74",
        "transit_day": "2024-02-26",
        "transit_hour": "02:00",
        "station_complex": "18 Av (N)",
        "total_ridership": 2.0,
        "latitude": 40.62067,
        "longitude": -73.99042,
        "borough": "Brooklyn"
    },
    {
        "station_complex_id": "52",
        "transit_day": "2024-01-02",
        "transit_hour": "16:00",
        "station_complex": "Avenue U (Q)",
        "total_ridership": 12.0,
        "latitude": 40.5993,
        "longitude": -73.95593,
        "borough": "Brooklyn"
    },
    {
        "station_complex_id": "13",
        "transit_day": "2024-01-02",
        "transit_hour": "16:00",
        "station_complex": "28 St (R,W)",
        "total_ridership": 9.0,
        "latitude": 40.745495,
        "longitude": -73.98869,
        "borough": "Manhattan"
    },
    {
        "station_complex_id": "189",
        "transit_day": "2024-01-02",
        "transit_hour": "10:00",
        "station_complex": "Grant Av (A)",
        "total_ridership": 10.0,
        "latitude": 40.677044,
        "longitude": -73.86505,
        "borough": "Brooklyn"
    },
    {
        "station_complex_id": "604",
        "transit_day": "2024-01-02",
        "transit_hour": "15:00",
        "station_complex": "161 St-Yankee Stadium (B,D,4)",
        "total_ridership": 82.0,
        "latitude": 40.827995,
        "longitude": -73.92565,
        "borough": "Bronx"
    },
    {
        "station_complex_id": "605",
        "transit_day": "2024-01-02",
        "transit_hour": "14:00",
        "station_complex": "168 St (A,C,1)",
        "total_ridership": 106.0,
        "latitude": 40.840717,
        "longitude": -73.93956,
        "borough": "Manhattan"
    },
    {
        "station_complex_id": "126",
        "transit_day": "2024-01-02",
        "transit_hour": "07:00",
        "station_complex": "Jefferson St (L)",
        "total_ridership": 8.0,
        "latitude": 40.706608,
        "longitude": -73.92291,
        "borough": "Brooklyn"
    },
    {
        "station_complex_id": "211",
        "transit_day": "2024-01-02",
        "transit_hour": "22:00",
        "station_complex": "Bedford Park Blvd (B,D)",
        "total_ridership": 3.0,
        "latitude": 40.873245,
        "longitude": -73.88714,
        "borough": "Bronx"
    },
    {
        "station_complex_id": "629",
        "transit_day": "2024-01-02",
        "transit_hour": "00:00",
        "station_complex": "Lorimer St (L)/Metropolitan Av (G)",
        "total_ridership": 19.0,
        "latitude": 40.71406,
        "longitude": -73.95027,
        "borough": "Brooklyn"
    },
    {
        "station_complex_id": "124",
        "transit_day": "2024-01-02",
        "transit_hour": "06:00",
        "station_complex": "Montrose Av (L)",
        "total_ridership": 63.0,
        "latitude": 40.70774,
        "longitude": -73.93985,
        "borough": "Brooklyn"
    },
    {
        "station_complex_id": "605",
        "transit_day": "2024-01-02",
        "transit_hour": "09:00",
        "station_complex": "168 St (A,C,1)",
        "total_ridership": 322.0,
        "latitude": 40.840717,
        "longitude": -73.93956,
        "borough": "Manhattan"
    },
    {
        "station_complex_id": "186",
        "transit_day": "2024-01-02",
        "transit_hour": "14:00",
        "station_complex": "Van Siclen Av (C)",
        "total_ridership": 8.0,
        "latitude": 40.67271,
        "longitude": -73.89036,
        "borough": "Brooklyn"
    },
    {
        "station_complex_id": "211",
        "transit_day": "2024-01-02",
        "transit_hour": "13:00",
        "station_complex": "Bedford Park Blvd (B,D)",
        "total_ridership": 7.0,
        "latitude": 40.873245,
        "longitude": -73.88714,
        "borough": "Bronx"
    },
    {
        "station_complex_id": "606",
        "transit_day": "2024-01-02",
        "transit_hour": "20:00",
        "station_complex": "Court Sq (E,G,M,7)",
        "total_ridership": 54.0,
        "latitude": 40.747845,
        "longitude": -73.94383,
        "borough": "Queens"
    },
    {
        "station_complex_id": "122",
        "transit_day": "2024-01-02",
        "transit_hour": "22:00",
        "station_complex": "Graham Av (L)",
        "total_ridership": 30.0,
        "latitude": 40.714565,
        "longitude": -73.94405,
        "borough": "Brooklyn"
    },
    {
        "station_complex_id": "635",
        "transit_day": "2024-02-26",
        "transit_hour": "20:00",
        "station_complex": "South Ferry (1)/Whitehall St (R,W)",
        "total_ridership": 7.0,
        "latitude": 40.703087,
        "longitude": -74.01299,
        "borough": "Manhattan"
    },
    {
        "station_complex_id": "603",
        "transit_day": "2024-01-02",
        "transit_hour": "04:00",
        "station_complex": "149 St-Grand Concourse (2,4,5)",
        "total_ridership": 8.0,
        "latitude": 40.818375,
        "longitude": -73.92735,
        "borough": "Bronx"
    },
    {
        "station_complex_id": "53",
        "transit_day": "2024-01-02",
        "transit_hour": "08:00",
        "station_complex": "Neck Rd (Q)",
        "total_ridership": 76.0,
        "latitude": 40.595245,
        "longitude": -73.95516,
        "borough": "Brooklyn"
    },
    {
        "station_complex_id": "181",
        "transit_day": "2024-01-02",
        "transit_hour": "16:00",
        "station_complex": "Utica Av (A,C)",
        "total_ridership": 39.0,
        "latitude": 40.679363,
        "longitude": -73.93073,
        "borough": "Brooklyn"
    },
    {
        "station_complex_id": "60",
        "transit_day": "2024-01-02",
        "transit_hour": "10:00",
        "station_complex": "Fort Hamilton Pkwy (D)",
        "total_ridership": 15.0,
        "latitude": 40.640915,
        "longitude": -73.9943,
        "borough": "Brooklyn"
    },
    {
        "station_complex_id": "602",
        "transit_day": "2024-01-02",
        "transit_hour": "01:00",
        "station_complex": "14 St-Union Sq (L,N,Q,R,W,4,5,6)",
        "total_ridership": 17.0,
        "latitude": 40.735737,
        "longitude": -73.98995,
        "borough": "Manhattan"
    },
    {
        "station_complex_id": "120",
        "transit_day": "2024-01-02",
        "transit_hour": "15:00",
        "station_complex": "Bedford Av (L)",
        "total_ridership": 815.0,
        "latitude": 40.717304,
        "longitude": -73.95687,
        "borough": "Brooklyn"
    },
    {
        "station_complex_id": "192",
        "transit_day": "2024-01-02",
        "transit_hour": "13:00",
        "station_complex": "Rockaway Blvd (A)",
        "total_ridership": 74.0,
        "latitude": 40.680428,
        "longitude": -73.84386,
        "borough": "Queens"
    },
    {
        "station_complex_id": "611",
        "transit_day": "2024-01-02",
        "transit_hour": "09:00",
        "station_complex": "Times Sq-42 St (N,Q,R,W,S,1,2,3,7)/42 St (A,C,E)",
        "total_ridership": 3798.0,
        "latitude": 40.75731,
        "longitude": -73.986755,
        "borough": "Manhattan"
    },
    {
        "station_complex_id": "133",
        "transit_day": "2024-01-02",
        "transit_hour": "10:00",
        "station_complex": "Atlantic Av (L)",
        "total_ridership": 8.0,
        "latitude": 40.675346,
        "longitude": -73.9031,
        "borough": "Brooklyn"
    },
    {
        "station_complex_id": "209",
        "transit_day": "2024-01-02",
        "transit_hour": "08:00",
        "station_complex": "Far Rockaway-Mott Av (A)",
        "total_ridership": 19.0,
        "latitude": 40.603996,
        "longitude": -73.7554,
        "borough": "Queens"
    },
    {
        "station_complex_id": "127",
        "transit_day": "2024-01-02",
        "transit_hour": "07:00",
        "station_complex": "DeKalb Av (L)",
        "total_ridership": 71.0,
        "latitude": 40.70381,
        "longitude": -73.91843,
        "borough": "Brooklyn"
    },
    {
        "station_complex_id": "630",
        "transit_day": "2024-02-26",
        "transit_hour": "20:00",
        "station_complex": "Myrtle-Wyckoff Avs (L,M)",
        "total_ridership": 7.0,
        "latitude": 40.699814,
        "longitude": -73.91158,
        "borough": "Brooklyn"
    },
    {
        "station_complex_id": "59",
        "transit_day": "2024-01-02",
        "transit_hour": "16:00",
        "station_complex": "9 Av (D)",
        "total_ridership": 55.0,
        "latitude": 40.646294,
        "longitude": -73.99432,
        "borough": "Brooklyn"
    },
    {
        "station_complex_id": "613",
        "transit_day": "2024-02-26",
        "transit_hour": "23:00",
        "station_complex": "Lexington Av (N,R,W)/59 St (4,5,6)",
        "total_ridership": 13.0,
        "latitude": 40.76266,
        "longitude": -73.967255,
        "borough": "Manhattan"
    },
    {
        "station_complex_id": "605",
        "transit_day": "2024-01-02",
        "transit_hour": "04:00",
        "station_complex": "168 St (A,C,1)",
        "total_ridership": 1.0,
        "latitude": 40.840717,
        "longitude": -73.93956,
        "borough": "Manhattan"
    },
    {
        "station_complex_id": "626",
        "transit_day": "2024-01-02",
        "transit_hour": "06:00",
        "station_complex": "Franklin Av (2,3,4,5)/Botanic Garden (S)",
        "total_ridership": 9.0,
        "latitude": 40.67068,
        "longitude": -73.95813,
        "borough": "Brooklyn"
    },
    {
        "station_complex_id": "610",
        "transit_day": "2024-01-02",
        "transit_hour": "07:00",
        "station_complex": "Grand Central-42 St (S,4,5,6,7)",
        "total_ridership": 1483.0,
        "latitude": 40.751778,
        "longitude": -73.976845,
        "borough": "Manhattan"
    },
    {
        "station_complex_id": "607",
        "transit_day": "2024-01-02",
        "transit_hour": "13:00",
        "station_complex": "34 St-Herald Sq (B,D,F,M,N,Q,R,W)",
        "total_ridership": 860.0,
        "latitude": 40.749718,
        "longitude": -73.98782,
        "borough": "Manhattan"
    },
    {
        "station_complex_id": "627",
        "transit_day": "2024-02-26",
        "transit_hour": "13:00",
        "station_complex": "Franklin Av (C,S)",
        "total_ridership": 30.0,
        "latitude": 40.68138,
        "longitude": -73.95685,
        "borough": "Brooklyn"
    },
    {
        "station_complex_id": "610",
        "transit_day": "2024-02-26",
        "transit_hour": "13:00",
        "station_complex": "Grand Central-42 St (S,4,5,6,7)",
        "total_ridership": 22.0,
        "latitude": 40.751778,
        "longitude": -73.976845,
        "borough": "Manhattan"
    },
    {
        "station_complex_id": "194",
        "transit_day": "2024-01-02",
        "transit_hour": "12:00",
        "station_complex": "111 St (A)",
        "total_ridership": 24.0,
        "latitude": 40.68433,
        "longitude": -73.83216,
        "borough": "Queens"
    },
    {
        "station_complex_id": "56",
        "transit_day": "2024-01-02",
        "transit_hour": "10:00",
        "station_complex": "Ocean Pkwy (Q)",
        "total_ridership": 9.0,
        "latitude": 40.576313,
        "longitude": -73.9685,
        "borough": "Brooklyn"
    },
    {
        "station_complex_id": "125",
        "transit_day": "2024-01-02",
        "transit_hour": "22:00",
        "station_complex": "Morgan Av (L)",
        "total_ridership": 10.0,
        "latitude": 40.706154,
        "longitude": -73.93314,
        "borough": "Brooklyn"
    },
    {
        "station_complex_id": "16",
        "transit_day": "2024-01-02",
        "transit_hour": "23:00",
        "station_complex": "8 St-NYU (R,W)",
        "total_ridership": 4.0,
        "latitude": 40.730328,
        "longitude": -73.99263,
        "borough": "Manhattan"
    },
    {
        "station_complex_id": "153",
        "transit_day": "2024-01-02",
        "transit_hour": "06:00",
        "station_complex": "125 St (A,C,B,D)",
        "total_ridership": 56.0,
        "latitude": 40.811108,
        "longitude": -73.95235,
        "borough": "Manhattan"
    },
    {
        "station_complex_id": "635",
        "transit_day": "2024-02-26",
        "transit_hour": "18:00",
        "station_complex": "South Ferry (1)/Whitehall St (R,W)",
        "total_ridership": 12.0,
        "latitude": 40.703087,
        "longitude": -74.01299,
        "borough": "Manhattan"
    },
    {
        "station_complex_id": "55",
        "transit_day": "2024-01-02",
        "transit_hour": "07:00",
        "station_complex": "Brighton Beach (B,Q)",
        "total_ridership": 2.0,
        "latitude": 40.57762,
        "longitude": -73.96137,
        "borough": "Brooklyn"
    },
    {
        "station_complex_id": "604",
        "transit_day": "2024-01-02",
        "transit_hour": "20:00",
        "station_complex": "161 St-Yankee Stadium (B,D,4)",
        "total_ridership": 7.0,
        "latitude": 40.827995,
        "longitude": -73.92565,
        "borough": "Bronx"
    },
    {
        "station_complex_id": "152",
        "transit_day": "2024-01-02",
        "transit_hour": "19:00",
        "station_complex": "135 St (C,B)",
        "total_ridership": 8.0,
        "latitude": 40.817894,
        "longitude": -73.94765,
        "borough": "Manhattan"
    },
    {
        "station_complex_id": "154",
        "transit_day": "2024-01-02",
        "transit_hour": "13:00",
        "station_complex": "116 St (C,B)",
        "total_ridership": 15.0,
        "latitude": 40.805084,
        "longitude": -73.95488,
        "borough": "Manhattan"
    },
    {
        "station_complex_id": "185",
        "transit_day": "2024-01-02",
        "transit_hour": "11:00",
        "station_complex": "Liberty Av (C)",
        "total_ridership": 9.0,
        "latitude": 40.67454,
        "longitude": -73.896545,
        "borough": "Brooklyn"
    },
    {
        "station_complex_id": "211",
        "transit_day": "2024-01-02",
        "transit_hour": "20:00",
        "station_complex": "Bedford Park Blvd (B,D)",
        "total_ridership": 5.0,
        "latitude": 40.873245,
        "longitude": -73.88714,
        "borough": "Bronx"
    },
    {
        "station_complex_id": "636",
        "transit_day": "2024-02-26",
        "transit_hour": "19:00",
        "station_complex": "Jay St-MetroTech (A,C,F,R)",
        "total_ridership": 891.0,
        "latitude": 40.692337,
        "longitude": -73.98594,
        "borough": "Brooklyn"
    },
    {
        "station_complex_id": "608",
        "transit_day": "2024-01-02",
        "transit_hour": "09:00",
        "station_complex": "4 Av (F,G)/9 St (R)",
        "total_ridership": 345.0,
        "latitude": 40.67085,
        "longitude": -73.988304,
        "borough": "Brooklyn"
    },
    {
        "station_complex_id": "222",
        "transit_day": "2024-01-02",
        "transit_hour": "22:00",
        "station_complex": "Roosevelt Island (F)",
        "total_ridership": 4.0,
        "latitude": 40.759144,
        "longitude": -73.95326,
        "borough": "Manhattan"
    },
    {
        "station_complex_id": "601",
        "transit_day": "2024-01-02",
        "transit_hour": "01:00",
        "station_complex": "14 St (F,M,1,2,3)/6 Av (L)",
        "total_ridership": 45.0,
        "latitude": 40.738228,
        "longitude": -73.99621,
        "borough": "Manhattan"
    },
    {
        "station_complex_id": "622",
        "transit_day": "2024-02-26",
        "transit_hour": "04:00",
        "station_complex": "Brooklyn Bridge-City Hall (4,5,6)/Chambers St (J,Z)",
        "total_ridership": 7.0,
        "latitude": 40.71324,
        "longitude": -74.0034,
        "borough": "Manhattan"
    },
    {
        "station_complex_id": "71",
        "transit_day": "2024-02-26",
        "transit_hour": "20:00",
        "station_complex": "8 Av (N)",
        "total_ridership": 40.0,
        "latitude": 40.635063,
        "longitude": -74.01172,
        "borough": "Brooklyn"
    },
    {
        "station_complex_id": "635",
        "transit_day": "2024-02-26",
        "transit_hour": "02:00",
        "station_complex": "South Ferry (1)/Whitehall St (R,W)",
        "total_ridership": 21.0,
        "latitude": 40.703087,
        "longitude": -74.01299,
        "borough": "Manhattan"
    },
    {
        "station_complex_id": "131",
        "transit_day": "2024-01-02",
        "transit_hour": "05:00",
        "station_complex": "Bushwick Av-Aberdeen St (L)",
        "total_ridership": 1.0,
        "latitude": 40.68283,
        "longitude": -73.90525,
        "borough": "Brooklyn"
    },
    {
        "station_complex_id": "215",
        "transit_day": "2024-01-02",
        "transit_hour": "02:00",
        "station_complex": "Tremont Av (B,D)",
        "total_ridership": 1.0,
        "latitude": 40.85041,
        "longitude": -73.90523,
        "borough": "Bronx"
    },
    {
        "station_complex_id": "131",
        "transit_day": "2024-01-02",
        "transit_hour": "14:00",
        "station_complex": "Bushwick Av-Aberdeen St (L)",
        "total_ridership": 12.0,
        "latitude": 40.68283,
        "longitude": -73.90525,
        "borough": "Brooklyn"
    },
    {
        "station_complex_id": "22",
        "transit_day": "2024-01-02",
        "transit_hour": "15:00",
        "station_complex": "Rector St (R,W)",
        "total_ridership": 6.0,
        "latitude": 40.70722,
        "longitude": -74.01334,
        "borough": "Manhattan"
    },
    {
        "station_complex_id": "623",
        "transit_day": "2024-01-02",
        "transit_hour": "06:00",
        "station_complex": "Canal St (J,N,Q,R,W,Z,6)",
        "total_ridership": 12.0,
        "latitude": 40.71953,
        "longitude": -73.99989,
        "borough": "Manhattan"
    },
    {
        "station_complex_id": "185",
        "transit_day": "2024-01-02",
        "transit_hour": "13:00",
        "station_complex": "Liberty Av (C)",
        "total_ridership": 6.0,
        "latitude": 40.67454,
        "longitude": -73.896545,
        "borough": "Brooklyn"
    },
    {
        "station_complex_id": "189",
        "transit_day": "2024-01-02",
        "transit_hour": "21:00",
        "station_complex": "Grant Av (A)",
        "total_ridership": 6.0,
        "latitude": 40.677044,
        "longitude": -73.86505,
        "borough": "Brooklyn"
    },
    {
        "station_complex_id": "607",
        "transit_day": "2024-01-02",
        "transit_hour": "04:00",
        "station_complex": "34 St-Herald Sq (B,D,F,M,N,Q,R,W)",
        "total_ridership": 9.0,
        "latitude": 40.749718,
        "longitude": -73.98782,
        "borough": "Manhattan"
    },
    {
        "station_complex_id": "218",
        "transit_day": "2024-01-02",
        "transit_hour": "23:00",
        "station_complex": "167 St (B,D)",
        "total_ridership": 6.0,
        "latitude": 40.83377,
        "longitude": -73.91844,
        "borough": "Bronx"
    },
    {
        "station_complex_id": "13",
        "transit_day": "2024-01-02",
        "transit_hour": "15:00",
        "station_complex": "28 St (R,W)",
        "total_ridership": 95.0,
        "latitude": 40.745495,
        "longitude": -73.98869,
        "borough": "Manhattan"
    },
    {
        "station_complex_id": "188",
        "transit_day": "2024-01-02",
        "transit_hour": "15:00",
        "station_complex": "Euclid Av (A,C)",
        "total_ridership": 110.0,
        "latitude": 40.675377,
        "longitude": -73.87211,
        "borough": "Brooklyn"
    },
    {
        "station_complex_id": "183",
        "transit_day": "2024-01-02",
        "transit_hour": "14:00",
        "station_complex": "Rockaway Av (C)",
        "total_ridership": 132.0,
        "latitude": 40.67834,
        "longitude": -73.91195,
        "borough": "Brooklyn"
    },
    {
        "station_complex_id": "75",
        "transit_day": "2024-02-26",
        "transit_hour": "07:00",
        "station_complex": "20 Av (N)",
        "total_ridership": 1.0,
        "latitude": 40.61741,
        "longitude": -73.98502,
        "borough": "Brooklyn"
    },
    {
        "station_complex_id": "213",
        "transit_day": "2024-01-02",
        "transit_hour": "08:00",
        "station_complex": "Fordham Rd (B,D)",
        "total_ridership": 37.0,
        "latitude": 40.861298,
        "longitude": -73.89775,
        "borough": "Bronx"
    },
    {
        "station_complex_id": "67",
        "transit_day": "2024-02-26",
        "transit_hour": "10:00",
        "station_complex": "20 Av (D)",
        "total_ridership": 68.0,
        "latitude": 40.604557,
        "longitude": -73.99817,
        "borough": "Brooklyn"
    },
    {
        "station_complex_id": "217",
        "transit_day": "2024-01-02",
        "transit_hour": "08:00",
        "station_complex": "170 St (B,D)",
        "total_ridership": 45.0,
        "latitude": 40.839306,
        "longitude": -73.9134,
        "borough": "Bronx"
    },
    {
        "station_complex_id": "609",
        "transit_day": "2024-01-02",
        "transit_hour": "14:00",
        "station_complex": "Bryant Pk (B,D,F,M)/5 Av (7)",
        "total_ridership": 2.0,
        "latitude": 40.754223,
        "longitude": -73.984566,
        "borough": "Manhattan"
    },
    {
        "station_complex_id": "603",
        "transit_day": "2024-01-02",
        "transit_hour": "19:00",
        "station_complex": "149 St-Grand Concourse (2,4,5)",
        "total_ridership": 20.0,
        "latitude": 40.818375,
        "longitude": -73.92735,
        "borough": "Bronx"
    },
    {
        "station_complex_id": "612",
        "transit_day": "2024-02-26",
        "transit_hour": "01:00",
        "station_complex": "Lexington Av-53 St (E,M)/51 St (6)",
        "total_ridership": 14.0,
        "latitude": 40.757553,
        "longitude": -73.969055,
        "borough": "Manhattan"
    },
    {
        "station_complex_id": "151",
        "transit_day": "2024-01-02",
        "transit_hour": "05:00",
        "station_complex": "145 St (A,C,B,D)",
        "total_ridership": 109.0,
        "latitude": 40.824783,
        "longitude": -73.944214,
        "borough": "Manhattan"
    },
    {
        "station_complex_id": "187",
        "transit_day": "2024-01-02",
        "transit_hour": "22:00",
        "station_complex": "Shepherd Av (C)",
        "total_ridership": 1.0,
        "latitude": 40.67413,
        "longitude": -73.88075,
        "borough": "Brooklyn"
    },
    {
        "station_complex_id": "213",
        "transit_day": "2024-01-02",
        "transit_hour": "20:00",
        "station_complex": "Fordham Rd (B,D)",
        "total_ridership": 10.0,
        "latitude": 40.861298,
        "longitude": -73.89775,
        "borough": "Bronx"
    },
    {
        "station_complex_id": "60",
        "transit_day": "2024-01-02",
        "transit_hour": "03:00",
        "station_complex": "Fort Hamilton Pkwy (D)",
        "total_ridership": 2.0,
        "latitude": 40.640915,
        "longitude": -73.9943,
        "borough": "Brooklyn"
    },
    {
        "station_complex_id": "158",
        "transit_day": "2024-01-02",
        "transit_hour": "16:00",
        "station_complex": "86 St (C,B)",
        "total_ridership": 518.0,
        "latitude": 40.78587,
        "longitude": -73.96892,
        "borough": "Manhattan"
    },
    {
        "station_complex_id": "627",
        "transit_day": "2024-02-26",
        "transit_hour": "11:00",
        "station_complex": "Franklin Av (C,S)",
        "total_ridership": 23.0,
        "latitude": 40.68138,
        "longitude": -73.95685,
        "borough": "Brooklyn"
    },
    {
        "station_complex_id": "625",
        "transit_day": "2024-02-26",
        "transit_hour": "17:00",
        "station_complex": "Delancey St (F)/Essex St (J,M,Z)",
        "total_ridership": 35.0,
        "latitude": 40.718613,
        "longitude": -73.987434,
        "borough": "Manhattan"
    },
    {
        "station_complex_id": "159",
        "transit_day": "2024-01-02",
        "transit_hour": "07:00",
        "station_complex": "81 St-Museum of Natural History (C,B)",
        "total_ridership": 97.0,
        "latitude": 40.781433,
        "longitude": -73.972145,
        "borough": "Manhattan"
    },
    {
        "station_complex_id": "186",
        "transit_day": "2024-01-02",
        "transit_hour": "19:00",
        "station_complex": "Van Siclen Av (C)",
        "total_ridership": 6.0,
        "latitude": 40.67271,
        "longitude": -73.89036,
        "borough": "Brooklyn"
    },
    {
        "station_complex_id": "16",
        "transit_day": "2024-01-02",
        "transit_hour": "22:00",
        "station_complex": "8 St-NYU (R,W)",
        "total_ridership": 5.0,
        "latitude": 40.730328,
        "longitude": -73.99263,
        "borough": "Manhattan"
    },
    {
        "station_complex_id": "193",
        "transit_day": "2024-01-02",
        "transit_hour": "10:00",
        "station_complex": "104 St (A)",
        "total_ridership": 14.0,
        "latitude": 40.68171,
        "longitude": -73.837685,
        "borough": "Queens"
    },
    {
        "station_complex_id": "119",
        "transit_day": "2024-01-02",
        "transit_hour": "20:00",
        "station_complex": "1 Av (L)",
        "total_ridership": 30.0,
        "latitude": 40.730953,
        "longitude": -73.98163,
        "borough": "Manhattan"
    },
    {
        "station_complex_id": "627",
        "transit_day": "2024-01-02",
        "transit_hour": "19:00",
        "station_complex": "Franklin Av (C,S)",
        "total_ridership": 82.0,
        "latitude": 40.68138,
        "longitude": -73.95685,
        "borough": "Brooklyn"
    },
    {
        "station_complex_id": "189",
        "transit_day": "2024-01-02",
        "transit_hour": "06:00",
        "station_complex": "Grant Av (A)",
        "total_ridership": 8.0,
        "latitude": 40.677044,
        "longitude": -73.86505,
        "borough": "Brooklyn"
    },
    {
        "station_complex_id": "626",
        "transit_day": "2024-02-26",
        "transit_hour": "15:00",
        "station_complex": "Franklin Av (2,3,4,5)/Botanic Garden (S)",
        "total_ridership": 123.0,
        "latitude": 40.67068,
        "longitude": -73.95813,
        "borough": "Brooklyn"
    },
    {
        "station_complex_id": "60",
        "transit_day": "2024-01-02",
        "transit_hour": "21:00",
        "station_complex": "Fort Hamilton Pkwy (D)",
        "total_ridership": 5.0,
        "latitude": 40.640915,
        "longitude": -73.9943,
        "borough": "Brooklyn"
    },
    {
        "station_complex_id": "151",
        "transit_day": "2024-01-02",
        "transit_hour": "19:00",
        "station_complex": "145 St (A,C,B,D)",
        "total_ridership": 46.0,
        "latitude": 40.824783,
        "longitude": -73.944214,
        "borough": "Manhattan"
    },
    {
        "station_complex_id": "613",
        "transit_day": "2024-01-02",
        "transit_hour": "11:00",
        "station_complex": "Lexington Av (N,R,W)/59 St (4,5,6)",
        "total_ridership": 38.0,
        "latitude": 40.76266,
        "longitude": -73.967255,
        "borough": "Manhattan"
    },
    {
        "station_complex_id": "154",
        "transit_day": "2024-01-02",
        "transit_hour": "01:00",
        "station_complex": "116 St (C,B)",
        "total_ridership": 2.0,
        "latitude": 40.805084,
        "longitude": -73.95488,
        "borough": "Manhattan"
    },
    {
        "station_complex_id": "629",
        "transit_day": "2024-01-02",
        "transit_hour": "07:00",
        "station_complex": "Lorimer St (L)/Metropolitan Av (G)",
        "total_ridership": 60.0,
        "latitude": 40.71406,
        "longitude": -73.95027,
        "borough": "Brooklyn"
    },
    {
        "station_complex_id": "216",
        "transit_day": "2024-01-02",
        "transit_hour": "11:00",
        "station_complex": "174-175 Sts (B,D)",
        "total_ridership": 35.0,
        "latitude": 40.8459,
        "longitude": -73.91013,
        "borough": "Bronx"
    },
    {
        "station_complex_id": "68",
        "transit_day": "2024-02-26",
        "transit_hour": "22:00",
        "station_complex": "Bay Pkwy (D)",
        "total_ridership": 30.0,
        "latitude": 40.601875,
        "longitude": -73.99373,
        "borough": "Brooklyn"
    },
    {
        "station_complex_id": "612",
        "transit_day": "2024-02-26",
        "transit_hour": "07:00",
        "station_complex": "Lexington Av-53 St (E,M)/51 St (6)",
        "total_ridership": 1.0,
        "latitude": 40.757107,
        "longitude": -73.97192,
        "borough": "Manhattan"
    },
    {
        "station_complex_id": "626",
        "transit_day": "2024-01-02",
        "transit_hour": "15:00",
        "station_complex": "Franklin Av (2,3,4,5)/Botanic Garden (S)",
        "total_ridership": 25.0,
        "latitude": 40.67068,
        "longitude": -73.95813,
        "borough": "Brooklyn"
    },
    {
        "station_complex_id": "189",
        "transit_day": "2024-01-02",
        "transit_hour": "02:00",
        "station_complex": "Grant Av (A)",
        "total_ridership": 3.0,
        "latitude": 40.677044,
        "longitude": -73.86505,
        "borough": "Brooklyn"
    },
    {
        "station_complex_id": "58",
        "transit_day": "2024-01-02",
        "transit_hour": "04:00",
        "station_complex": "Coney Island-Stillwell Av (D,F,N,Q)",
        "total_ridership": 33.0,
        "latitude": 40.577423,
        "longitude": -73.98123,
        "borough": "Brooklyn"
    },
    {
        "station_complex_id": "608",
        "transit_day": "2024-02-26",
        "transit_hour": "03:00",
        "station_complex": "4 Av (F,G)/9 St (R)",
        "total_ridership": 2.0,
        "latitude": 40.670273,
        "longitude": -73.98978,
        "borough": "Brooklyn"
    },
    {
        "station_complex_id": "154",
        "transit_day": "2024-01-02",
        "transit_hour": "03:00",
        "station_complex": "116 St (C,B)",
        "total_ridership": 1.0,
        "latitude": 40.805084,
        "longitude": -73.95488,
        "borough": "Manhattan"
    },
    {
        "station_complex_id": "613",
        "transit_day": "2024-01-02",
        "transit_hour": "06:00",
        "station_complex": "Lexington Av (N,R,W)/59 St (4,5,6)",
        "total_ridership": 33.0,
        "latitude": 40.76266,
        "longitude": -73.967255,
        "borough": "Manhattan"
    },
    {
        "station_complex_id": "215",
        "transit_day": "2024-01-02",
        "transit_hour": "17:00",
        "station_complex": "Tremont Av (B,D)",
        "total_ridership": 91.0,
        "latitude": 40.85041,
        "longitude": -73.90523,
        "borough": "Bronx"
    },
    {
        "station_complex_id": "608",
        "transit_day": "2024-01-02",
        "transit_hour": "17:00",
        "station_complex": "4 Av (F,G)/9 St (R)",
        "total_ridership": 115.0,
        "latitude": 40.67085,
        "longitude": -73.988304,
        "borough": "Brooklyn"
    },
    {
        "station_complex_id": "192",
        "transit_day": "2024-01-02",
        "transit_hour": "04:00",
        "station_complex": "Rockaway Blvd (A)",
        "total_ridership": 1.0,
        "latitude": 40.680428,
        "longitude": -73.84386,
        "borough": "Queens"
    },
    {
        "station_complex_id": "630",
        "transit_day": "2024-02-26",
        "transit_hour": "13:00",
        "station_complex": "Myrtle-Wyckoff Avs (L,M)",
        "total_ridership": 287.0,
        "latitude": 40.699814,
        "longitude": -73.91158,
        "borough": "Brooklyn"
    },
    {
        "station_complex_id": "124",
        "transit_day": "2024-01-02",
        "transit_hour": "23:00",
        "station_complex": "Montrose Av (L)",
        "total_ridership": 1.0,
        "latitude": 40.70774,
        "longitude": -73.93985,
        "borough": "Brooklyn"
    },
    {
        "station_complex_id": "160",
        "transit_day": "2024-01-02",
        "transit_hour": "12:00",
        "station_complex": "72 St (C,B)",
        "total_ridership": 2.0,
        "latitude": 40.775593,
        "longitude": -73.97641,
        "borough": "Manhattan"
    },
    {
        "station_complex_id": "153",
        "transit_day": "2024-01-02",
        "transit_hour": "10:00",
        "station_complex": "125 St (A,C,B,D)",
        "total_ridership": 44.0,
        "latitude": 40.811108,
        "longitude": -73.95235,
        "borough": "Manhattan"
    },
    {
        "station_complex_id": "16",
        "transit_day": "2024-01-02",
        "transit_hour": "02:00",
        "station_complex": "8 St-NYU (R,W)",
        "total_ridership": 16.0,
        "latitude": 40.730328,
        "longitude": -73.99263,
        "borough": "Manhattan"
    },
    {
        "station_complex_id": "221",
        "transit_day": "2024-01-02",
        "transit_hour": "20:00",
        "station_complex": "21 St-Queensbridge (F)",
        "total_ridership": 5.0,
        "latitude": 40.754204,
        "longitude": -73.94283,
        "borough": "Queens"
    },
    {
        "station_complex_id": "159",
        "transit_day": "2024-01-02",
        "transit_hour": "19:00",
        "station_complex": "81 St-Museum of Natural History (C,B)",
        "total_ridership": 21.0,
        "latitude": 40.781433,
        "longitude": -73.972145,
        "borough": "Manhattan"
    },
    {
        "station_complex_id": "627",
        "transit_day": "2024-01-02",
        "transit_hour": "12:00",
        "station_complex": "Franklin Av (C,S)",
        "total_ridership": 18.0,
        "latitude": 40.68138,
        "longitude": -73.95685,
        "borough": "Brooklyn"
    },
    {
        "station_complex_id": "220",
        "transit_day": "2024-01-02",
        "transit_hour": "14:00",
        "station_complex": "155 St (B,D)",
        "total_ridership": 6.0,
        "latitude": 40.830135,
        "longitude": -73.93821,
        "borough": "Manhattan"
    },
    {
        "station_complex_id": "624",
        "transit_day": "2024-01-02",
        "transit_hour": "17:00",
        "station_complex": "Chambers St (A,C)/WTC (E)/Park Pl (2,3)/Cortlandt (R,W)",
        "total_ridership": 12.0,
        "latitude": 40.71411,
        "longitude": -74.00858,
        "borough": "Manhattan"
    },
    {
        "station_complex_id": "214",
        "transit_day": "2024-01-02",
        "transit_hour": "10:00",
        "station_complex": "182-183 Sts (B,D)",
        "total_ridership": 16.0,
        "latitude": 40.856094,
        "longitude": -73.90074,
        "borough": "Bronx"
    },
    {
        "station_complex_id": "119",
        "transit_day": "2024-01-02",
        "transit_hour": "17:00",
        "station_complex": "1 Av (L)",
        "total_ridership": 112.0,
        "latitude": 40.730953,
        "longitude": -73.98163,
        "borough": "Manhattan"
    },
    {
        "station_complex_id": "627",
        "transit_day": "2024-01-02",
        "transit_hour": "03:00",
        "station_complex": "Franklin Av (C,S)",
        "total_ridership": 1.0,
        "latitude": 40.68138,
        "longitude": -73.95685,
        "borough": "Brooklyn"
    },
    {
        "station_complex_id": "188",
        "transit_day": "2024-01-02",
        "transit_hour": "04:00",
        "station_complex": "Euclid Av (A,C)",
        "total_ridership": 4.0,
        "latitude": 40.675377,
        "longitude": -73.87211,
        "borough": "Brooklyn"
    },
    {
        "station_complex_id": "181",
        "transit_day": "2024-01-02",
        "transit_hour": "07:00",
        "station_complex": "Utica Av (A,C)",
        "total_ridership": 114.0,
        "latitude": 40.679363,
        "longitude": -73.93073,
        "borough": "Brooklyn"
    },
    {
        "station_complex_id": "604",
        "transit_day": "2024-01-02",
        "transit_hour": "00:00",
        "station_complex": "161 St-Yankee Stadium (B,D,4)",
        "total_ridership": 1.0,
        "latitude": 40.827995,
        "longitude": -73.925835,
        "borough": "Bronx"
    },
    {
        "station_complex_id": "124",
        "transit_day": "2024-01-02",
        "transit_hour": "07:00",
        "station_complex": "Montrose Av (L)",
        "total_ridership": 38.0,
        "latitude": 40.70774,
        "longitude": -73.93985,
        "borough": "Brooklyn"
    },
    {
        "station_complex_id": "218",
        "transit_day": "2024-01-02",
        "transit_hour": "21:00",
        "station_complex": "167 St (B,D)",
        "total_ridership": 20.0,
        "latitude": 40.83377,
        "longitude": -73.91844,
        "borough": "Bronx"
    },
    {
        "station_complex_id": "182",
        "transit_day": "2024-01-02",
        "transit_hour": "06:00",
        "station_complex": "Ralph Av (C)",
        "total_ridership": 34.0,
        "latitude": 40.67882,
        "longitude": -73.920784,
        "borough": "Brooklyn"
    },
    {
        "station_complex_id": "218",
        "transit_day": "2024-01-02",
        "transit_hour": "19:00",
        "station_complex": "167 St (B,D)",
        "total_ridership": 10.0,
        "latitude": 40.83377,
        "longitude": -73.91844,
        "borough": "Bronx"
    },
    {
        "station_complex_id": "623",
        "transit_day": "2024-02-26",
        "transit_hour": "02:00",
        "station_complex": "Canal St (J,N,Q,R,W,Z,6)",
        "total_ridership": 2.0,
        "latitude": 40.71953,
        "longitude": -73.99989,
        "borough": "Manhattan"
    },
    {
        "station_complex_id": "609",
        "transit_day": "2024-02-26",
        "transit_hour": "19:00",
        "station_complex": "Bryant Pk (B,D,F,M)/5 Av (7)",
        "total_ridership": 224.0,
        "latitude": 40.754223,
        "longitude": -73.981964,
        "borough": "Manhattan"
    },
    {
        "station_complex_id": "76",
        "transit_day": "2024-02-26",
        "transit_hour": "21:00",
        "station_complex": "Bay Pkwy (N)",
        "total_ridership": 10.0,
        "latitude": 40.611816,
        "longitude": -73.98185,
        "borough": "Brooklyn"
    },
    {
        "station_complex_id": "611",
        "transit_day": "2024-01-02",
        "transit_hour": "08:00",
        "station_complex": "Times Sq-42 St (N,Q,R,W,S,1,2,3,7)/42 St (A,C,E)",
        "total_ridership": 12.0,
        "latitude": 40.75731,
        "longitude": -73.987495,
        "borough": "Manhattan"
    },
    {
        "station_complex_id": "213",
        "transit_day": "2024-01-02",
        "transit_hour": "23:00",
        "station_complex": "Fordham Rd (B,D)",
        "total_ridership": 6.0,
        "latitude": 40.861298,
        "longitude": -73.89775,
        "borough": "Bronx"
    },
    {
        "station_complex_id": "119",
        "transit_day": "2024-01-02",
        "transit_hour": "22:00",
        "station_complex": "1 Av (L)",
        "total_ridership": 7.0,
        "latitude": 40.730953,
        "longitude": -73.98163,
        "borough": "Manhattan"
    },
    {
        "station_complex_id": "151",
        "transit_day": "2024-01-02",
        "transit_hour": "14:00",
        "station_complex": "145 St (A,C,B,D)",
        "total_ridership": 104.0,
        "latitude": 40.824783,
        "longitude": -73.944214,
        "borough": "Manhattan"
    },
    {
        "station_complex_id": "162",
        "transit_day": "2024-01-02",
        "transit_hour": "13:00",
        "station_complex": "50 St (C,E)",
        "total_ridership": 114.0,
        "latitude": 40.762455,
        "longitude": -73.985985,
        "borough": "Manhattan"
    },
    {
        "station_complex_id": "55",
        "transit_day": "2024-01-02",
        "transit_hour": "05:00",
        "station_complex": "Brighton Beach (B,Q)",
        "total_ridership": 7.0,
        "latitude": 40.57762,
        "longitude": -73.96137,
        "borough": "Brooklyn"
    },
    {
        "station_complex_id": "607",
        "transit_day": "2024-02-26",
        "transit_hour": "15:00",
        "station_complex": "34 St-Herald Sq (B,D,F,M,N,Q,R,W)",
        "total_ridership": 194.0,
        "latitude": 40.749718,
        "longitude": -73.98782,
        "borough": "Manhattan"
    },
    {
        "station_complex_id": "628",
        "transit_day": "2024-01-02",
        "transit_hour": "17:00",
        "station_complex": "Fulton St (A,C,J,Z,2,3,4,5)",
        "total_ridership": 209.0,
        "latitude": 40.710373,
        "longitude": -74.00657,
        "borough": "Manhattan"
    },
    {
        "station_complex_id": "54",
        "transit_day": "2024-01-02",
        "transit_hour": "22:00",
        "station_complex": "Sheepshead Bay (B,Q)",
        "total_ridership": 5.0,
        "latitude": 40.586895,
        "longitude": -73.954155,
        "borough": "Brooklyn"
    },
    {
        "station_complex_id": "218",
        "transit_day": "2024-01-02",
        "transit_hour": "01:00",
        "station_complex": "167 St (B,D)",
        "total_ridership": 3.0,
        "latitude": 40.83377,
        "longitude": -73.91844,
        "borough": "Bronx"
    },
    {
        "station_complex_id": "133",
        "transit_day": "2024-01-02",
        "transit_hour": "18:00",
        "station_complex": "Atlantic Av (L)",
        "total_ridership": 16.0,
        "latitude": 40.675346,
        "longitude": -73.9031,
        "borough": "Brooklyn"
    },
    {
        "station_complex_id": "181",
        "transit_day": "2024-01-02",
        "transit_hour": "00:00",
        "station_complex": "Utica Av (A,C)",
        "total_ridership": 6.0,
        "latitude": 40.679363,
        "longitude": -73.93073,
        "borough": "Brooklyn"
    },
    {
        "station_complex_id": "159",
        "transit_day": "2024-01-02",
        "transit_hour": "15:00",
        "station_complex": "81 St-Museum of Natural History (C,B)",
        "total_ridership": 248.0,
        "latitude": 40.781433,
        "longitude": -73.972145,
        "borough": "Manhattan"
    },
    {
        "station_complex_id": "126",
        "transit_day": "2024-01-02",
        "transit_hour": "05:00",
        "station_complex": "Jefferson St (L)",
        "total_ridership": 33.0,
        "latitude": 40.706608,
        "longitude": -73.92291,
        "borough": "Brooklyn"
    },
    {
        "station_complex_id": "612",
        "transit_day": "2024-01-02",
        "transit_hour": "11:00",
        "station_complex": "Lexington Av-53 St (E,M)/51 St (6)",
        "total_ridership": 71.0,
        "latitude": 40.757553,
        "longitude": -73.969055,
        "borough": "Manhattan"
    },
    {
        "station_complex_id": "612",
        "transit_day": "2024-01-02",
        "transit_hour": "21:00",
        "station_complex": "Lexington Av-53 St (E,M)/51 St (6)",
        "total_ridership": 85.0,
        "latitude": 40.757553,
        "longitude": -73.969055,
        "borough": "Manhattan"
    },
    {
        "station_complex_id": "210",
        "transit_day": "2024-01-02",
        "transit_hour": "19:00",
        "station_complex": "Norwood-205 St (D)",
        "total_ridership": 7.0,
        "latitude": 40.87481,
        "longitude": -73.87885,
        "borough": "Bronx"
    },
    {
        "station_complex_id": "607",
        "transit_day": "2024-02-26",
        "transit_hour": "22:00",
        "station_complex": "34 St-Herald Sq (B,D,F,M,N,Q,R,W)",
        "total_ridership": 239.0,
        "latitude": 40.749718,
        "longitude": -73.98782,
        "borough": "Manhattan"
    },
    {
        "station_complex_id": "625",
        "transit_day": "2024-01-02",
        "transit_hour": "16:00",
        "station_complex": "Delancey St (F)/Essex St (J,M,Z)",
        "total_ridership": 134.0,
        "latitude": 40.718613,
        "longitude": -73.987434,
        "borough": "Manhattan"
    },
    {
        "station_complex_id": "61",
        "transit_day": "2024-02-26",
        "transit_hour": "14:00",
        "station_complex": "50 St (D)",
        "total_ridership": 4.0,
        "latitude": 40.63626,
        "longitude": -73.99479,
        "borough": "Brooklyn"
    },
    {
        "station_complex_id": "123",
        "transit_day": "2024-01-02",
        "transit_hour": "07:00",
        "station_complex": "Grand St (L)",
        "total_ridership": 6.0,
        "latitude": 40.711926,
        "longitude": -73.94067,
        "borough": "Brooklyn"
    },
    {
        "station_complex_id": "610",
        "transit_day": "2024-01-02",
        "transit_hour": "15:00",
        "station_complex": "Grand Central-42 St (S,4,5,6,7)",
        "total_ridership": 390.0,
        "latitude": 40.751778,
        "longitude": -73.976845,
        "borough": "Manhattan"
    },
    {
        "station_complex_id": "627",
        "transit_day": "2024-02-26",
        "transit_hour": "07:00",
        "station_complex": "Franklin Av (C,S)",
        "total_ridership": 5.0,
        "latitude": 40.68138,
        "longitude": -73.95685,
        "borough": "Brooklyn"
    },
    {
        "station_complex_id": "190",
        "transit_day": "2024-01-02",
        "transit_hour": "14:00",
        "station_complex": "80 St (A)",
        "total_ridership": 23.0,
        "latitude": 40.67937,
        "longitude": -73.85899,
        "borough": "Queens"
    },
    {
        "station_complex_id": "628",
        "transit_day": "2024-01-02",
        "transit_hour": "11:00",
        "station_complex": "Fulton St (A,C,J,Z,2,3,4,5)",
        "total_ridership": 42.0,
        "latitude": 40.710373,
        "longitude": -74.00657,
        "borough": "Manhattan"
    },
    {
        "station_complex_id": "610",
        "transit_day": "2024-02-26",
        "transit_hour": "15:00",
        "station_complex": "Grand Central-42 St (S,4,5,6,7)",
        "total_ridership": 181.0,
        "latitude": 40.751778,
        "longitude": -73.976845,
        "borough": "Manhattan"
    },
    {
        "station_complex_id": "623",
        "transit_day": "2024-01-02",
        "transit_hour": "03:00",
        "station_complex": "Canal St (J,N,Q,R,W,Z,6)",
        "total_ridership": 1.0,
        "latitude": 40.71953,
        "longitude": -74.00178,
        "borough": "Manhattan"
    },
    {
        "station_complex_id": "611",
        "transit_day": "2024-02-26",
        "transit_hour": "21:00",
        "station_complex": "Times Sq-42 St (N,Q,R,W,S,1,2,3,7)/42 St (A,C,E)",
        "total_ridership": 540.0,
        "latitude": 40.75731,
        "longitude": -73.986755,
        "borough": "Manhattan"
    },
    {
        "station_complex_id": "123",
        "transit_day": "2024-01-02",
        "transit_hour": "20:00",
        "station_complex": "Grand St (L)",
        "total_ridership": 8.0,
        "latitude": 40.711926,
        "longitude": -73.94067,
        "borough": "Brooklyn"
    },
    {
        "station_complex_id": "152",
        "transit_day": "2024-01-02",
        "transit_hour": "04:00",
        "station_complex": "135 St (C,B)",
        "total_ridership": 3.0,
        "latitude": 40.817894,
        "longitude": -73.94765,
        "borough": "Manhattan"
    },
    {
        "station_complex_id": "126",
        "transit_day": "2024-01-02",
        "transit_hour": "08:00",
        "station_complex": "Jefferson St (L)",
        "total_ridership": 75.0,
        "latitude": 40.706608,
        "longitude": -73.92291,
        "borough": "Brooklyn"
    },
    {
        "station_complex_id": "218",
        "transit_day": "2024-01-02",
        "transit_hour": "10:00",
        "station_complex": "167 St (B,D)",
        "total_ridership": 8.0,
        "latitude": 40.83377,
        "longitude": -73.91844,
        "borough": "Bronx"
    },
    {
        "station_complex_id": "61",
        "transit_day": "2024-02-26",
        "transit_hour": "21:00",
        "station_complex": "50 St (D)",
        "total_ridership": 1.0,
        "latitude": 40.63626,
        "longitude": -73.99479,
        "borough": "Brooklyn"
    },
    {
        "station_complex_id": "13",
        "transit_day": "2024-01-02",
        "transit_hour": "21:00",
        "station_complex": "28 St (R,W)",
        "total_ridership": 1.0,
        "latitude": 40.745495,
        "longitude": -73.98869,
        "borough": "Manhattan"
    },
    {
        "station_complex_id": "154",
        "transit_day": "2024-01-02",
        "transit_hour": "22:00",
        "station_complex": "116 St (C,B)",
        "total_ridership": 34.0,
        "latitude": 40.805084,
        "longitude": -73.95488,
        "borough": "Manhattan"
    },
    {
        "station_complex_id": "612",
        "transit_day": "2024-02-26",
        "transit_hour": "19:00",
        "station_complex": "Lexington Av-53 St (E,M)/51 St (6)",
        "total_ridership": 45.0,
        "latitude": 40.757553,
        "longitude": -73.969055,
        "borough": "Manhattan"
    },
    {
        "station_complex_id": "606",
        "transit_day": "2024-01-02",
        "transit_hour": "17:00",
        "station_complex": "Court Sq (E,G,M,7)",
        "total_ridership": 44.0,
        "latitude": 40.747845,
        "longitude": -73.94383,
        "borough": "Queens"
    },
    {
        "station_complex_id": "609",
        "transit_day": "2024-01-02",
        "transit_hour": "08:00",
        "station_complex": "Bryant Pk (B,D,F,M)/5 Av (7)",
        "total_ridership": 10.0,
        "latitude": 40.754223,
        "longitude": -73.981964,
        "borough": "Manhattan"
    },
    {
        "station_complex_id": "186",
        "transit_day": "2024-01-02",
        "transit_hour": "06:00",
        "station_complex": "Van Siclen Av (C)",
        "total_ridership": 11.0,
        "latitude": 40.67271,
        "longitude": -73.89036,
        "borough": "Brooklyn"
    },
    {
        "station_complex_id": "133",
        "transit_day": "2024-01-02",
        "transit_hour": "12:00",
        "station_complex": "Atlantic Av (L)",
        "total_ridership": 2.0,
        "latitude": 40.675346,
        "longitude": -73.9031,
        "borough": "Brooklyn"
    },
    {
        "station_complex_id": "123",
        "transit_day": "2024-01-02",
        "transit_hour": "08:00",
        "station_complex": "Grand St (L)",
        "total_ridership": 37.0,
        "latitude": 40.711926,
        "longitude": -73.94067,
        "borough": "Brooklyn"
    },
    {
        "station_complex_id": "187",
        "transit_day": "2024-01-02",
        "transit_hour": "19:00",
        "station_complex": "Shepherd Av (C)",
        "total_ridership": 5.0,
        "latitude": 40.67413,
        "longitude": -73.88075,
        "borough": "Brooklyn"
    },
    {
        "station_complex_id": "622",
        "transit_day": "2024-01-02",
        "transit_hour": "12:00",
        "station_complex": "Brooklyn Bridge-City Hall (4,5,6)/Chambers St (J,Z)",
        "total_ridership": 187.0,
        "latitude": 40.71324,
        "longitude": -74.0034,
        "borough": "Manhattan"
    },
    {
        "station_complex_id": "155",
        "transit_day": "2024-01-02",
        "transit_hour": "08:00",
        "station_complex": "Cathedral Pkwy (110 St) (C,B)",
        "total_ridership": 13.0,
        "latitude": 40.800602,
        "longitude": -73.95816,
        "borough": "Manhattan"
    },
    {
        "station_complex_id": "626",
        "transit_day": "2024-02-26",
        "transit_hour": "21:00",
        "station_complex": "Franklin Av (2,3,4,5)/Botanic Garden (S)",
        "total_ridership": 23.0,
        "latitude": 40.67068,
        "longitude": -73.95813,
        "borough": "Brooklyn"
    },
    {
        "station_complex_id": "212",
        "transit_day": "2024-01-02",
        "transit_hour": "13:00",
        "station_complex": "Kingsbridge Rd (B,D)",
        "total_ridership": 17.0,
        "latitude": 40.866978,
        "longitude": -73.89351,
        "borough": "Bronx"
    },
    {
        "station_complex_id": "70",
        "transit_day": "2024-02-26",
        "transit_hour": "21:00",
        "station_complex": "Bay 50 St (D)",
        "total_ridership": 2.0,
        "latitude": 40.58884,
        "longitude": -73.983765,
        "borough": "Brooklyn"
    },
    {
        "station_complex_id": "52",
        "transit_day": "2024-01-02",
        "transit_hour": "09:00",
        "station_complex": "Avenue U (Q)",
        "total_ridership": 229.0,
        "latitude": 40.5993,
        "longitude": -73.95593,
        "borough": "Brooklyn"
    },
    {
        "station_complex_id": "64",
        "transit_day": "2024-02-26",
        "transit_hour": "16:00",
        "station_complex": "71 St (D)",
        "total_ridership": 29.0,
        "latitude": 40.61959,
        "longitude": -73.99886,
        "borough": "Brooklyn"
    },
    {
        "station_complex_id": "189",
        "transit_day": "2024-01-02",
        "transit_hour": "16:00",
        "station_complex": "Grant Av (A)",
        "total_ridership": 14.0,
        "latitude": 40.677044,
        "longitude": -73.86505,
        "borough": "Brooklyn"
    },
    {
        "station_complex_id": "133",
        "transit_day": "2024-01-02",
        "transit_hour": "07:00",
        "station_complex": "Atlantic Av (L)",
        "total_ridership": 4.0,
        "latitude": 40.675346,
        "longitude": -73.9031,
        "borough": "Brooklyn"
    },
    {
        "station_complex_id": "152",
        "transit_day": "2024-01-02",
        "transit_hour": "07:00",
        "station_complex": "135 St (C,B)",
        "total_ridership": 97.0,
        "latitude": 40.817894,
        "longitude": -73.94765,
        "borough": "Manhattan"
    },
    {
        "station_complex_id": "190",
        "transit_day": "2024-01-02",
        "transit_hour": "12:00",
        "station_complex": "80 St (A)",
        "total_ridership": 4.0,
        "latitude": 40.67937,
        "longitude": -73.85899,
        "borough": "Queens"
    },
    {
        "station_complex_id": "628",
        "transit_day": "2024-01-02",
        "transit_hour": "13:00",
        "station_complex": "Fulton St (A,C,J,Z,2,3,4,5)",
        "total_ridership": 72.0,
        "latitude": 40.710373,
        "longitude": -74.00657,
        "borough": "Manhattan"
    },
    {
        "station_complex_id": "609",
        "transit_day": "2024-01-02",
        "transit_hour": "07:00",
        "station_complex": "Bryant Pk (B,D,F,M)/5 Av (7)",
        "total_ridership": 11.0,
        "latitude": 40.754223,
        "longitude": -73.981964,
        "borough": "Manhattan"
    },
    {
        "station_complex_id": "625",
        "transit_day": "2024-01-02",
        "transit_hour": "10:00",
        "station_complex": "Delancey St (F)/Essex St (J,M,Z)",
        "total_ridership": 24.0,
        "latitude": 40.718613,
        "longitude": -73.987434,
        "borough": "Manhattan"
    },
    {
        "station_complex_id": "602",
        "transit_day": "2024-01-02",
        "transit_hour": "08:00",
        "station_complex": "14 St-Union Sq (L,N,Q,R,W,4,5,6)",
        "total_ridership": 96.0,
        "latitude": 40.735737,
        "longitude": -73.98995,
        "borough": "Manhattan"
    },
    {
        "station_complex_id": "159",
        "transit_day": "2024-01-02",
        "transit_hour": "14:00",
        "station_complex": "81 St-Museum of Natural History (C,B)",
        "total_ridership": 257.0,
        "latitude": 40.781433,
        "longitude": -73.972145,
        "borough": "Manhattan"
    },
    {
        "station_complex_id": "625",
        "transit_day": "2024-02-26",
        "transit_hour": "18:00",
        "station_complex": "Delancey St (F)/Essex St (J,M,Z)",
        "total_ridership": 140.0,
        "latitude": 40.718613,
        "longitude": -73.987434,
        "borough": "Manhattan"
    },
    {
        "station_complex_id": "191",
        "transit_day": "2024-01-02",
        "transit_hour": "22:00",
        "station_complex": "88 St (A)",
        "total_ridership": 7.0,
        "latitude": 40.679844,
        "longitude": -73.85147,
        "borough": "Queens"
    },
    {
        "station_complex_id": "210",
        "transit_day": "2024-01-02",
        "transit_hour": "08:00",
        "station_complex": "Norwood-205 St (D)",
        "total_ridership": 28.0,
        "latitude": 40.87481,
        "longitude": -73.87885,
        "borough": "Bronx"
    },
    {
        "station_complex_id": "58",
        "transit_day": "2024-01-02",
        "transit_hour": "14:00",
        "station_complex": "Coney Island-Stillwell Av (D,F,N,Q)",
        "total_ridership": 34.0,
        "latitude": 40.577423,
        "longitude": -73.98123,
        "borough": "Brooklyn"
    },
    {
        "station_complex_id": "122",
        "transit_day": "2024-01-02",
        "transit_hour": "10:00",
        "station_complex": "Graham Av (L)",
        "total_ridership": 212.0,
        "latitude": 40.714565,
        "longitude": -73.94405,
        "borough": "Brooklyn"
    },
    {
        "station_complex_id": "57",
        "transit_day": "2024-01-02",
        "transit_hour": "16:00",
        "station_complex": "W 8 St-NY Aquarium (F,Q)",
        "total_ridership": 4.0,
        "latitude": 40.576126,
        "longitude": -73.97594,
        "borough": "Brooklyn"
    },
    {
        "station_complex_id": "604",
        "transit_day": "2024-01-02",
        "transit_hour": "04:00",
        "station_complex": "161 St-Yankee Stadium (B,D,4)",
        "total_ridership": 16.0,
        "latitude": 40.827995,
        "longitude": -73.92565,
        "borough": "Bronx"
    },
    {
        "station_complex_id": "623",
        "transit_day": "2024-01-02",
        "transit_hour": "15:00",
        "station_complex": "Canal St (J,N,Q,R,W,Z,6)",
        "total_ridership": 12.0,
        "latitude": 40.71953,
        "longitude": -73.99989,
        "borough": "Manhattan"
    },
    {
        "station_complex_id": "626",
        "transit_day": "2024-02-26",
        "transit_hour": "08:00",
        "station_complex": "Franklin Av (2,3,4,5)/Botanic Garden (S)",
        "total_ridership": 71.0,
        "latitude": 40.67068,
        "longitude": -73.95813,
        "borough": "Brooklyn"
    },
    {
        "station_complex_id": "160",
        "transit_day": "2024-01-02",
        "transit_hour": "16:00",
        "station_complex": "72 St (C,B)",
        "total_ridership": 61.0,
        "latitude": 40.775593,
        "longitude": -73.97641,
        "borough": "Manhattan"
    },
    {
        "station_complex_id": "630",
        "transit_day": "2024-02-26",
        "transit_hour": "11:00",
        "station_complex": "Myrtle-Wyckoff Avs (L,M)",
        "total_ridership": 29.0,
        "latitude": 40.699814,
        "longitude": -73.91158,
        "borough": "Brooklyn"
    },
    {
        "station_complex_id": "627",
        "transit_day": "2024-02-26",
        "transit_hour": "18:00",
        "station_complex": "Franklin Av (C,S)",
        "total_ridership": 6.0,
        "latitude": 40.68138,
        "longitude": -73.95685,
        "borough": "Brooklyn"
    },
    {
        "station_complex_id": "188",
        "transit_day": "2024-01-02",
        "transit_hour": "09:00",
        "station_complex": "Euclid Av (A,C)",
        "total_ridership": 27.0,
        "latitude": 40.675377,
        "longitude": -73.87211,
        "borough": "Brooklyn"
    },
    {
        "station_complex_id": "71",
        "transit_day": "2024-02-26",
        "transit_hour": "09:00",
        "station_complex": "8 Av (N)",
        "total_ridership": 131.0,
        "latitude": 40.635063,
        "longitude": -74.01172,
        "borough": "Brooklyn"
    },
    {
        "station_complex_id": "607",
        "transit_day": "2024-02-26",
        "transit_hour": "05:00",
        "station_complex": "34 St-Herald Sq (B,D,F,M,N,Q,R,W)",
        "total_ridership": 8.0,
        "latitude": 40.749718,
        "longitude": -73.98782,
        "borough": "Manhattan"
    },
    {
        "station_complex_id": "16",
        "transit_day": "2024-01-02",
        "transit_hour": "13:00",
        "station_complex": "8 St-NYU (R,W)",
        "total_ridership": 54.0,
        "latitude": 40.730328,
        "longitude": -73.99263,
        "borough": "Manhattan"
    },
    {
        "station_complex_id": "160",
        "transit_day": "2024-01-02",
        "transit_hour": "23:00",
        "station_complex": "72 St (C,B)",
        "total_ridership": 20.0,
        "latitude": 40.775593,
        "longitude": -73.97641,
        "borough": "Manhattan"
    },
    {
        "station_complex_id": "210",
        "transit_day": "2024-01-02",
        "transit_hour": "18:00",
        "station_complex": "Norwood-205 St (D)",
        "total_ridership": 7.0,
        "latitude": 40.87481,
        "longitude": -73.87885,
        "borough": "Bronx"
    },
    {
        "station_complex_id": "6",
        "transit_day": "2024-01-02",
        "transit_hour": "04:00",
        "station_complex": "39 Av-Dutch Kills (N,W)",
        "total_ridership": 3.0,
        "latitude": 40.75288,
        "longitude": -73.932755,
        "borough": "Queens"
    },
    {
        "station_complex_id": "612",
        "transit_day": "2024-02-26",
        "transit_hour": "10:00",
        "station_complex": "Lexington Av-53 St (E,M)/51 St (6)",
        "total_ridership": 143.0,
        "latitude": 40.757553,
        "longitude": -73.969055,
        "borough": "Manhattan"
    },